FacilityID,FacilityName,Address,City,State,Zip,Latitude,Longitude,County,NAICS,SIC,UrbanRural,Plant operator name,Balancing Authority Name,Balancing Authority Code,NERC region acronym,eGRID subregion acronym,Plant primary fuel,Plant primary coal/oil/gas/ other fossil fuel category,Plant coal generation percent (resource mix),Plant oil generation percent (resource mix),Plant gas generation percent (resource mix),Plant nuclear generation percent (resource mix),Plant hydro generation percent (resource mix),Plant biomass generation percent (resource mix),Plant wind generation percent (resource mix),Plant solar generation percent (resource mix),Plant geothermal generation percent (resource mix),Plant other fossil generation percent (resource mix),Plant other unknown / purchased fuel generation percent (resource mix)
54452,Agrium Kenai Nitrogen Operations,,,AK,,60.6732,-151.3784,Kenai Peninsula,,,,Homer Electric Assn Inc,No balancing authority,,AK,AKGD,NG,GAS,,,,,,,,,,,
57053,Alakanuk,,,AK,,62.6833,-164.6544,Wade Hampton,,,,"Alaska Village Elec Coop, Inc",No balancing authority,,AK,AKMS,JF,OIL,,,,,,,,,,,
58982,Allison Creek Hydro,,,AK,,61.084444,-146.353333,Valdez Cordova,,,,"Copper Valley Elec Assn, Inc",No balancing authority,,AK,AKMS,WAT,HYDRO,0,0,0,0,100,0,0,0,0,0,0
60243,Ambler,,,AK,,67.08798,-157.856719,Northwest Arctic,,,,"Alaska Village Elec Coop, Inc",No balancing authority,,AK,AKMS,DFO,OIL,0,100,0,0,0,0,0,0,0,0,0
7462,Angoon,,,AK,,57.499166,-134.58614,Hoonah-Angoon,,,,"Inside Passage Elec Coop, Inc",No balancing authority,,AK,AKMS,DFO,OIL,0,100,0,0,0,0,0,0,0,0,0
7182,Aniak,,,AK,,61.580678,-159.535643,Bethel,,,,Aniak Light & Power Co Inc,No balancing authority,,AK,AKMS,DFO,OIL,0,100,0,0,0,0,0,0,0,0,0
62,Annex Creek,,,AK,,58.3176,-134.101,Juneau,,,,Alaska Electric Light&Power Co,No balancing authority,,AK,AKMS,WAT,HYDRO,0,0,0,0,100,0,0,0,0,0,0
7250,Auke Bay,,,AK,,58.3875,-134.6446,Juneau,,,,Alaska Electric Light&Power Co,No balancing authority,,AK,AKMS,DFO,OIL,,,,,,,,,,,
79,Aurora Energy LLC Chena,,,AK,,64.847743,-147.735063,Fairbanks North Star,,,,Golden Valley Elec Assn Inc,No balancing authority,,AK,AKGD,SUB,COAL,100,0,0,0,0,0,0,0,0,0,0
7173,Barrow,,,AK,,71.292,-156.7786,North Slope,,,,"Barrow Utils & Elec Coop, Inc",No balancing authority,,AK,AKMS,NG,GAS,0,0.002406457,99.99759354,0,0,0,0,0,0,0,0
57583,Battery Energy Storage System,,,AK,,64.8167,-147.725,Fairbanks North Star,,,,Golden Valley Elec Assn Inc,No balancing authority,,AK,AKGD,MWH,OTHF,,,,,,,,,,,
6580,Beaver Falls,,,AK,,55.37975,-131.470269,Ketchikan Gateway,,,,Ketchikan Public Utilities,No balancing authority,,AK,AKMS,WAT,HYDRO,0,0,0,0,100,0,0,0,0,0,0
96,Beluga,,,AK,,61.1861,-151.0356,Kenai Peninsula,,,,Chugach Electric Assn Inc,Chugach Electric Assn Inc,CEA,AK,AKGD,NG,GAS,0,0,100,0,0,0,0,0,0,0,0
6292,Bernice Lake,,,AK,,60.6935,-151.3874,Kenai Peninsula,,,,Alaska Electric & Energy Coop,No balancing authority,,AK,AKGD,NG,GAS,0,0,100,0,0,0,0,0,0,0,0
6566,Bethel,,,AK,,60.7897,-161.787778,Bethel,,,,"Alaska Village Elec Coop, Inc",No balancing authority,,AK,AKMS,DFO,OIL,0,100,0,0,0,0,0,0,0,0,0
7752,Black Bear Lake,,,AK,,55.476472,-133.14772,Prince of Wales-Hyder,,,,Alaska Power and Telephone Co,No balancing authority,,AK,AKMS,WAT,HYDRO,0,0,0,0,100,0,0,0,0,0,0
93,Blue Lake Hydro,,,AK,,57.0516,-135.2297,Sitka,,,,City & Borough of Sitka - (AK),No balancing authority,,AK,AKMS,WAT,HYDRO,0,0,0,0,100,0,0,0,0,0,0
7367,Bradley Lake,,,AK,,59.77862,-150.94015,Kenai Peninsula,,,,Alaska Electric & Energy Coop,No balancing authority,,AK,AKGD,WAT,HYDRO,0,0,0,0,100,0,0,0,0,0,0
60260,Brevig Mission,,,AK,,65.331716,-166.479506,Nome,,,,"Alaska Village Elec Coop, Inc",No balancing authority,,AK,AKMS,DFO,OIL,0,100,0,0,0,0,0,0,0,0,0
7112,Centennial,,,AK,,55.121433,-131.560267,Prince of Wales-Hyder,,,,Metlakatla Power & Light,No balancing authority,,AK,AKMS,DFO,OIL,0,100,0,0,0,0,0,0,0,0,0
7168,Chester Lake,,,AK,,55.116879,-131.545879,Prince of Wales-Hyder,,,,Metlakatla Power & Light,No balancing authority,,AK,AKMS,WAT,HYDRO,0,0,0,0,100,0,0,0,0,0,0
6311,Chevak,,,AK,,61.525297,-165.590152,Bethel,,,,"Alaska Village Elec Coop, Inc",No balancing authority,,AK,AKMS,DFO,OIL,0,100,0,0,0,0,0,0,0,0,0
6291,Cooper Lake,,,AK,,60.392331,-149.665603,Kenai Peninsula,,,,Chugach Electric Assn Inc,Chugach Electric Assn Inc,CEA,AK,AKGD,WAT,HYDRO,0,0,0,0,100,0,0,0,0,0,0
421,Craig (AK),,,AK,,55.47691,-133.14869,Prince of Wales-Hyder,,,,Alaska Power and Telephone Co,No balancing authority,,AK,AKMS,DFO,OIL,0,100,0,0,0,0,0,0,0,0,0
56325,Delta Power,,,AK,,64.028056,-145.719444,Southeast Fairbanks,,,,Golden Valley Elec Assn Inc,No balancing authority,,AK,AKGD,DFO,OIL,,,,,,,,,,,
58511,Delta Wind Farm,,,AK,,64.013889,-145.596667,Southeast Fairbanks,,,,Golden Valley Elec Assn Inc,No balancing authority,,AK,AKGD,WND,WIND,0,0,0,0,0,0,100,0,0,0,0
109,Dillingham,,,AK,,59.042914,-158.468597,Dillingham,,,,"Nushagak Electric Coop, Inc",No balancing authority,,AK,AKMS,DFO,OIL,0,100,0,0,0,0,0,0,0,0,0
7502,Dutch Harbor,,,AK,,53.892459,-166.538185,Aleutians West,,,,City of Unalaska - (AK),No balancing authority,,AK,AKMS,DFO,OIL,0,100,0,0,0,0,0,0,0,0,0
50392,Eielson AFB Central Heat & Power Plant,,,AK,,64.67141,-147.075988,Fairbanks North Star,,,,Golden Valley Elec Assn Inc,No balancing authority,,AK,AKGD,SUB,COAL,99.60514929,0.394850714,0,0,0,0,0,0,0,0,0
58989,Eklutna Generation Station,,,AK,,61.457778,-149.351389,Anchorage,,,,Matanuska Electric Assn Inc,No balancing authority,,AK,AKGD,NG,GAS,0,0,100,0,0,0,0,0,0,0,0
77,Eklutna Hydro Project,,,AK,,61.475211,-149.15009,Matanuska Susitna,,,,Chugach Electric Assn Inc,Chugach Electric Assn Inc,CEA,AK,AKGD,WAT,HYDRO,0,0,0,0,100,0,0,0,0,0,0
57060,Elim,,,AK,,64.616558,-162.263717,Nome,,,,"Alaska Village Elec Coop, Inc",No balancing authority,,AK,AKMS,DFO,OIL,0,100,0,0,0,0,0,0,0,0,0
6314,Emmonak,,,AK,,62.777694,-164.531517,Wade Hampton,,,,"Alaska Village Elec Coop, Inc",No balancing authority,,AK,AKMS,DFO,OIL,0,100,0,0,0,0,0,0,0,0,0
58405,ESS Battery Microgrid,,,AK,,57.799167,-152.404167,Kodiak Island,,,,Kodiak Electric Assn Inc,No balancing authority,,AK,AKMS,MWH,OTHF,,,,,,,,,,,
57935,Eva Creek Wind,,,AK,,64.058333,-148.9,Denali,,,,Golden Valley Elec Assn Inc,No balancing authority,,AK,AKGD,WND,WIND,0,0,0,0,0,0,100,0,0,0,0
62714,Eyak Service Center BESS,,,AK,,60.54047,-145.74079,Valdez Cordova,,,,"Cordova Electric Coop, Inc",No balancing authority,,AK,AKMS,MWH,OTHF,,,,,,,,,,,
6286,Fairbanks,,,AK,,64.854171,-147.719351,Fairbanks North Star,,,,Golden Valley Elec Assn Inc,No balancing authority,,AK,AKGD,DFO,OIL,0,100,0,0,0,0,0,0,0,0,0
56146,False Island,,,AK,,55.48918,-133.1345,Prince of Wales-Hyder,,,,Alaska Power and Telephone Co,No balancing authority,,AK,AKMS,DFO,OIL,0,100,0,0,0,0,0,0,0,0,0
58425,Fire Island Wind,,,AK,,61.13,-150.243611,Anchorage,,,,Chugach Electric Assn Inc,Chugach Electric Assn Inc,CEA,AK,AKGD,WND,WIND,0,0,0,0,0,0,100,0,0,0,0
60563,Flywheel Energy Storage System Microgrid,,,AK,,57.780114,-152.443783,Kodiak Island,,,,Kodiak Electric Assn Inc,No balancing authority,,AK,AKMS,MWH,OTHF,,,,,,,,,,,
54834,Fort Greely Power Plant,,,AK,,63.973572,-145.716581,Southeast Fairbanks,,,,Golden Valley Elec Assn Inc,No balancing authority,,AK,AKGD,DFO,OIL,0,100,0,0,0,0,0,0,0,0,0
7437,Galena Electric Utility,,,AK,,64.74417,-156.8736,Yukon Koyukuk,,,,Galena Electric Utility,No balancing authority,,AK,AKMS,DFO,OIL,0,100,0,0,0,0,0,0,0,0,0
57062,Gambell,,,AK,,63.777058,-171.712439,Nome,,,,"Alaska Village Elec Coop, Inc",No balancing authority,,AK,AKMS,DFO,OIL,0,100,0,0,0,0,0,0,0,0,0
6559,George M Sullivan Generation Plant 2,,,AK,,61.229713,-149.716744,Anchorage,,,,Chugach Electric Assn Inc,Chugach Electric Assn Inc,CEA,AK,AKGD,NG,GAS,0,0,100,0,0,0,0,0,0,0,0
6305,Glennallen,,,AK,,62.110415,-145.532529,Valdez Cordova,,,,"Copper Valley Elec Assn, Inc",No balancing authority,,AK,AKMS,DFO,OIL,0,100,0,0,0,0,0,0,0,0,0
7751,Goat Lake Hydro,,,AK,,59.5357,-135.2123,Skagway,,,,Alaska Power and Telephone Co,No balancing authority,,AK,AKMS,WAT,HYDRO,0,0,0,0,100,0,0,0,0,0,0
63,Gold Creek,,,AK,,58.3107,-134.4174,Juneau,,,,Alaska Electric Light&Power Co,No balancing authority,,AK,AKMS,WAT,HYDRO,0,0.092182891,0,0,99.90781711,0,0,0,0,0,0
313,Green Lake,,,AK,,56.986284,-135.12275,Sitka,,,,City & Borough of Sitka - (AK),No balancing authority,,AK,AKMS,WAT,HYDRO,0,0,0,0,100,0,0,0,0,0,0
65767,Gustavus,,,AK,,58.419497,-135.70737,Skagway Hoonah Angoon,,,,Alaska Power and Telephone Co,No balancing authority,,AK,AKMS,DFO,OIL,0,100,0,0,0,0,0,0,0,0,0
7174,Gwitchyaa Zhee,,,AK,,66.566287,-145.253052,Yukon Koyukuk,,,,Gwitchyaa Zhee Utility Co,No balancing authority,,AK,AKMS,DFO,OIL,0,100,0,0,0,0,0,0,0,0,0
69,Haines,,,AK,,59.235931,-135.446228,Haines,,,,Alaska Power and Telephone Co,No balancing authority,,AK,AKMS,DFO,OIL,0,100,0,0,0,0,0,0,0,0,0
75,Hank Nikkels Plant 1,,,AK,,61.2221,-149.8661,Anchorage,,,,Chugach Electric Assn Inc,Chugach Electric Assn Inc,CEA,AK,AKGD,NG,GAS,0,0.065674956,99.93432504,0,0,0,0,0,0,0,0
6288,Healy Power Plant,,,AK,,63.8542,-148.95,Denali,,,,Golden Valley Elec Assn Inc,No balancing authority,,AK,AKGD,LIG,COAL,97.98616395,2.013836047,0,0,0,0,0,0,0,0,0
59037,Hiilangaay Hydro,,,AK,,55.216389,-132.603611,Prince of Wales-Hyder,,,,Alaska Power and Telephone Co,No balancing authority,,AK,AKMS,WAT,HYDRO,0,0,0,0,100,0,0,0,0,0,0
7463,Hoonah,,,AK,,58.106432,-135.43074,Hoonah-Angoon,,,,"Inside Passage Elec Coop, Inc",No balancing authority,,AK,AKMS,DFO,OIL,0,100,0,0,0,0,0,0,0,0,0
6319,Hooper Bay,,,AK,,61.530858,-166.101944,Bethel,,,,"Alaska Village Elec Coop, Inc",No balancing authority,,AK,AKMS,DFO,OIL,0,100,0,0,0,0,0,0,0,0,0
7042,Humpback Creek,,,AK,,60.612822,-145.679411,Valdez Cordova,,,,"Cordova Electric Coop, Inc",No balancing authority,,AK,AKMS,WAT,HYDRO,0,0,0,0,100,0,0,0,0,0,0
423,Hydaburg,,,AK,,55.204937,-132.821435,Prince of Wales-Hyder,,,,Alaska Power and Telephone Co,No balancing authority,,AK,AKMS,DFO,OIL,0,100,0,0,0,0,0,0,0,0,0
59793,Industrial Plant,,,AK,,58.367635,-134.60802,Juneau,,,,Alaska Electric Light&Power Co,No balancing authority,,AK,AKMS,DFO,OIL,,,,,,,,,,,
6293,International,,,AK,,61.168972,-149.911038,Anchorage,,,,Chugach Electric Assn Inc,Chugach Electric Assn Inc,CEA,AK,AKGD,NG,GAS,,,,,,,,,,,
6801,Jarvis Street,,,AK,,57.0497,-135.3128,Sitka,,,,City & Borough of Sitka - (AK),No balancing authority,,AK,AKMS,DFO,OIL,,,,,,,,,,,
58380,JBER Landfill Gas Power Plant,,,AK,,61.286,-149.61,Anchorage,,,,Chugach Electric Assn Inc,Chugach Electric Assn Inc,CEA,AK,AKGD,LFG,BIOMASS,0,0,0.0578689,0,0,99.9421311,0,0,0,0,0
7464,Kake,,,AK,,56.962983,-133.922557,Petersburg,,,,"Inside Passage Elec Coop, Inc",No balancing authority,,AK,AKMS,DFO,OIL,0,100,0,0,0,0,0,0,0,0,0
56542,Kasidaya Creek Hydro,,,AK,,59.4072,-135.3408,Skagway,,,,Alaska Power and Telephone Co,No balancing authority,,AK,AKMS,WAT,HYDRO,0,0,0,0,100,0,0,0,0,0,0
57066,Kasigluk,,,AK,,60.8731,-162.5197,Bethel,,,,"Alaska Village Elec Coop, Inc",No balancing authority,,AK,AKMS,DFO,OIL,0,100,0,0,0,0,0,0,0,0,0
84,Ketchikan,,,AK,,55.344641,-131.633425,Ketchikan Gateway,,,,Ketchikan Public Utilities,No balancing authority,,AK,AKMS,WAT,HYDRO,0,0,0,0,100,0,0,0,0,0,0
6323,Kiana,,,AK,,66.973889,-160.428592,Northwest Arctic,,,,"Alaska Village Elec Coop, Inc",No balancing authority,,AK,AKMS,DFO,OIL,0,100,0,0,0,0,0,0,0,0,0
7493,King Cove,,,AK,,55.061683,-162.3103,Aleutians East,,,,City of King Cove,No balancing authority,,AK,AKMS,WAT,HYDRO,0,19.54261954,0,0,80.45738046,0,0,0,0,0,0
57065,Kivalina,,,AK,,67.726644,-164.538447,Northwest Arctic,,,,"Alaska Village Elec Coop, Inc",No balancing authority,,AK,AKMS,DFO,OIL,0,100,0,0,0,0,0,0,0,0,0
61684,Klawock Power Generation Station,,,AK,,55.553197,-133.08535,Prince of Wales-Hyder,,,,Alaska Power and Telephone Co,No balancing authority,,AK,AKMS,DFO,OIL,0,100,0,0,0,0,0,0,0,0,0
6281,Kodiak Microgrid,,,AK,,57.789956,-152.396982,Kodiak Island,,,,Kodiak Electric Assn Inc,No balancing authority,,AK,AKMS,DFO,OIL,,,,,,,,,,,
57064,Kotlik,,,AK,,63.03215,-163.553106,Wade Hampton,,,,"Alaska Village Elec Coop, Inc",No balancing authority,,AK,AKMS,DFO,OIL,0,100,0,0,0,0,0,0,0,0,0
6304,Kotzebue Hybrid,,,AK,,66.837778,-162.556944,NORTHWEST ARCTIC,,,,Kotzebue Electric Assn Inc,No balancing authority,,AK,AKMS,DFO,OIL,0,85.93874409,0,0,0,0,14.06125591,0,0,0,0
57059,Koyuk,,,AK,,64.932089,-161.167103,Nome,,,,"Alaska Village Elec Coop, Inc",No balancing authority,,AK,AKMS,DFO,OIL,0,100,0,0,0,0,0,0,0,0,0
57085,Lake Dorothy Hydroelectric Project,,,AK,,58.2325,-134.0533,Juneau,,,,Alaska Electric Light&Power Co,No balancing authority,,AK,AKMS,WAT,HYDRO,0,0,0,0,100,0,0,0,0,0,0
64,Lemon Creek,,,AK,,58.3536,-134.4953,Juneau,,,,Alaska Electric Light&Power Co,No balancing authority,,AK,AKMS,DFO,OIL,,,,,,,,,,,
60244,Marshall,,,AK,,61.878186,-162.085147,Wade Hampton,,,,"Alaska Village Elec Coop, Inc",No balancing authority,,AK,AKMS,DFO,OIL,0,100,0,0,0,0,0,0,0,0,0
6555,McGrath,,,AK,,62.95699,-155.594997,Yukon Koyukuk,,,,McGrath Light & Power Co,No balancing authority,,AK,AKMS,DFO,OIL,0,100,0,0,0,0,0,0,0,0,0
6329,Mountain Village,,,AK,,62.085569,-163.729072,Bethel,,,,"Alaska Village Elec Coop, Inc",No balancing authority,,AK,AKMS,DFO,OIL,0,100,0,0,0,0,0,0,0,0,0
6301,Naknek,,,AK,,58.730417,-157.007222,Bristol Bay,,,,"Naknek Electric Assn, Inc",No balancing authority,,AK,AKMS,DFO,OIL,0,100,0,0,0,0,0,0,0,0,0
60245,New Stuyahok,,,AK,,59.448358,-157.325528,Dillingham,,,,"Alaska Village Elec Coop, Inc",No balancing authority,,AK,AKMS,DFO,OIL,0,100,0,0,0,0,0,0,0,0,0
7183,Newhalen,,,AK,,59.899054,-154.698735,Lake and Peninsula,,,,"I-N-N Electric Coop, Inc",No balancing authority,,AK,AKMS,WAT,HYDRO,0,4.581901489,0,0,95.41809851,0,0,0,0,0,0
55966,Nikiski Combined Cycle,,,AK,,60.676539,-151.377713,Kenai Peninsula,,,,Alaska Electric & Energy Coop,No balancing authority,,AK,AKGD,NG,GAS,0,0,100,0,0,0,0,0,0,0,0
57051,Noatak,,,AK,,67.570931,-162.965728,Northwest Arctic,,,,"Alaska Village Elec Coop, Inc",No balancing authority,,AK,AKMS,DFO,OIL,0,100,0,0,0,0,0,0,0,0,0
6330,Noorvik,,,AK,,66.834519,-161.038717,Northwest Arctic,,,,"Alaska Village Elec Coop, Inc",No balancing authority,,AK,AKMS,DFO,OIL,0,100,0,0,0,0,0,0,0,0,0
6285,North Pole,,,AK,,64.7356,-147.3481,Fairbanks North Star,,,,Golden Valley Elec Assn Inc,No balancing authority,,AK,AKGD,WO,OIL,0,100,0,0,0,0,0,0,0,0,0
7169,Northway,,,AK,,62.9617,-141.9372,Southeast Fairbanks,,,,Alaska Power and Telephone Co,No balancing authority,,AK,AKMS,DFO,OIL,0,100,0,0,0,0,0,0,0,0,0
7487,NSB Anaktuvuk Pass,,,AK,,68.13795,-151.741017,North Slope,,,,North Slope Borough Power & Light,No balancing authority,,AK,AKMS,DFO,OIL,0,100,0,0,0,0,0,0,0,0,0
7482,NSB Atqasuk Utility,,,AK,,70.4826,-157.4252,North Slope,,,,North Slope Borough Power & Light,No balancing authority,,AK,AKMS,DFO,OIL,0,100,0,0,0,0,0,0,0,0,0
7483,NSB Kaktovik Utility,,,AK,,70.125617,-143.619033,North Slope,,,,North Slope Borough Power & Light,No balancing authority,,AK,AKMS,DFO,OIL,0,100,0,0,0,0,0,0,0,0,0
7484,NSB Nuiqsut Utility,,,AK,,70.220565,-150.993492,North Slope,,,,North Slope Borough Power & Light,No balancing authority,,AK,AKMS,DFO,OIL,0,36.34714149,63.65285851,0,0,0,0,0,0,0,0
7485,NSB Point Hope Utility,,,AK,,68.348424,-166.737211,North Slope,,,,North Slope Borough Power & Light,No balancing authority,,AK,AKMS,DFO,OIL,0,100,0,0,0,0,0,0,0,0,0
7486,NSB Point Lay Utility,,,AK,,69.740833,-163.005833,North Slope,,,,North Slope Borough Power & Light,No balancing authority,,AK,AKMS,DFO,OIL,0,100,0,0,0,0,0,0,0,0,0
7488,NSB Wainwright Utility,,,AK,,70.642877,-160.020461,North Slope,,,,North Slope Borough Power & Light,No balancing authority,,AK,AKMS,DFO,OIL,0,100,0,0,0,0,0,0,0,0,0
6333,Nunapitchuk,,,AK,,60.89588,-162.459756,Bethel,,,,"Alaska Village Elec Coop, Inc",No balancing authority,,AK,AKMS,DFO,OIL,,,,,,,,,,,
7723,Nymans Plant Microgrid,,,AK,,57.731608,-152.507044,Kodiak Island,,,,Kodiak Electric Assn Inc,No balancing authority,,AK,AKMS,DFO,OIL,,,,,,,,,,,
789,Orca,,,AK,,60.555889,-145.752983,Valdez Cordova,,,,"Cordova Electric Coop, Inc",No balancing authority,,AK,AKMS,DFO,OIL,0,100,0,0,0,0,0,0,0,0,0
6702,Pelican,,,AK,,57.957197,-136.220095,Hoonah-Angoon,,,,Pelican Utility,No balancing authority,,AK,AKMS,WAT,HYDRO,0,32.28285934,0,0,67.71714066,0,0,0,0,0,0
91,Petersburg,,,AK,,56.81104,-132.957091,Petersburg,,,,Petersburg Borough - (AK),No balancing authority,,AK,AKMS,WAT,HYDRO,0,6.002622471,0,0,93.99737753,0,0,0,0,0,0
57187,Pillar Mountain Wind Project Microgrid,,,AK,,57.7869,-152.4406,Kodiak Island,,,,Kodiak Electric Assn Inc,No balancing authority,,AK,AKMS,WND,WIND,0,0,0,0,0,0,100,0,0,0,0
57058,Pilot Station,,,AK,,61.936456,-162.880706,Wade Hampton,,,,"Alaska Village Elec Coop, Inc",No balancing authority,,AK,AKMS,DFO,OIL,0,100,0,0,0,0,0,0,0,0,0
6282,Port Lions Microgrid,,,AK,,57.864775,-152.855441,Kodiak Island,,,,Kodiak Electric Assn Inc,No balancing authority,,AK,AKMS,DFO,OIL,,,,,,,,,,,
7862,Power Creek,,,AK,,60.588686,-145.604539,Valdez Cordova,,,,"Cordova Electric Coop, Inc",No balancing authority,,AK,AKMS,WAT,HYDRO,0,0,0,0,100,0,0,0,0,0,0
6302,Purple Lake,,,AK,,55.091263,-131.544978,Prince of Wales-Hyder,,,,Metlakatla Power & Light,No balancing authority,,AK,AKMS,WAT,HYDRO,0,0,0,0,100,0,0,0,0,0,0
57057,Quinhagak,,,AK,,59.747436,-161.910647,Bethel,,,,"Alaska Village Elec Coop, Inc",No balancing authority,,AK,AKMS,DFO,OIL,0,100,0,0,0,0,0,0,0,0,0
85,S W Bailey,,,AK,,55.357397,-131.69696,Ketchikan Gateway,,,,Ketchikan Public Utilities,No balancing authority,,AK,AKMS,DFO,OIL,,,,,,,,,,,
65,Salmon Creek 1,,,AK,,58.3269,-134.4631,Juneau,,,,Alaska Electric Light&Power Co,No balancing authority,,AK,AKMS,WAT,HYDRO,0,0,0,0,100,0,0,0,0,0,0
1,Sand Point,,,AK,,55.339722,-160.497222,Aleutians East,,,,"TDX Sand Point Generating, LLC",No balancing authority,,AK,AKMS,DFO,OIL,0,95.31959483,0,0,0,0,4.680405169,0,0,0,0
57052,Savoonga,,,AK,,63.695267,-170.475661,Nome,,,,"Alaska Village Elec Coop, Inc",No balancing authority,,AK,AKMS,DFO,OIL,0,100,0,0,0,0,0,0,0,0,0
57056,Scammon Bay,,,AK,,61.843036,-165.581497,Wade Hampton,,,,"Alaska Village Elec Coop, Inc",No balancing authority,,AK,AKMS,DFO,OIL,0,100,0,0,0,0,0,0,0,0,0
6341,Selawik,,,AK,,66.606778,-160.014808,Northwest Arctic,,,,"Alaska Village Elec Coop, Inc",No balancing authority,,AK,AKMS,DFO,OIL,0,100,0,0,0,0,0,0,0,0,0
6283,Seldovia,,,AK,,59.439542,-151.713439,Kenai Peninsula,,,,Homer Electric Assn Inc,No balancing authority,,AK,AKGD,DFO,OIL,0,100,0,0,0,0,0,0,0,0,0
92,Seward (AK),,,AK,,60.130922,-149.43501,Kenai Peninsula,,,,City of Seward - (AK),No balancing authority,,AK,AKGD,DFO,OIL,0,100,0,0,0,0,0,0,0,0,0
6345,Shishmaref,,,AK,,66.255072,-166.073589,Nome,,,,"Alaska Village Elec Coop, Inc",No balancing authority,,AK,AKMS,DFO,OIL,0,100,0,0,0,0,0,0,0,0,0
57063,Shungnak,,,AK,,66.888114,-157.140206,Northwest Arctic,,,,"Alaska Village Elec Coop, Inc",No balancing authority,,AK,AKMS,DFO,OIL,0,100,0,0,0,0,0,0,0,0,0
6581,Silvis,,,AK,,55.381402,-131.517758,Ketchikan Gateway,,,,Ketchikan Public Utilities,No balancing authority,,AK,AKMS,WAT,HYDRO,0,0,0,0,100,0,0,0,0,0,0
66,Skagway,,,AK,,59.4545,-135.3131,Skagway,,,,Alaska Power and Telephone Co,No balancing authority,,AK,AKMS,WAT,HYDRO,0,36.32892057,0,0,63.67107943,0,0,0,0,0,0
61685,Slana Generating Station,,,AK,,62.592756,-143.588869,Southeast Fairbanks,,,,Alaska Power and Telephone Co,No balancing authority,,AK,AKMS,DFO,OIL,0,100,0,0,0,0,0,0,0,0,0
90,Snake River,,,AK,,64.505331,-165.429814,Nome,,,,Nome Joint Utility Systems,No balancing authority,,AK,AKMS,DFO,OIL,0,93.64255014,0,0,0,0,6.357449857,0,0,0,0
78,Snettisham,,,AK,,58.1415,-133.737,Juneau,,,,Alaska Electric Light&Power Co,No balancing authority,,AK,AKMS,WAT,HYDRO,0,0,0,0,100,0,0,0,0,0,0
57206,Soldotna,,,AK,,60.499444,-150.997222,Kenai Peninsula,,,,Homer Electric Assn Inc,No balancing authority,,AK,AKGD,NG,GAS,0,0,100,0,0,0,0,0,0,0,0
390,Solomon Gulch,,,AK,,61.0828,-146.3033,Valdez Cordova,,,,"Copper Valley Elec Assn, Inc",No balancing authority,,AK,AKMS,WAT,HYDRO,0,0,0,0,100,0,0,0,0,0,0
56265,South Fork,,,AK,,55.563333,-132.891111,Prince of Wales-Hyder,,,,Alaska Power and Telephone Co,No balancing authority,,AK,AKMS,WAT,HYDRO,0,0,0,0,100,0,0,0,0,0,0
57036,Southcentral Power Project,,,AK,,61.167417,-149.905304,Anchorage,,,,Chugach Electric Assn Inc,Chugach Electric Assn Inc,CEA,AK,AKGD,NG,GAS,0,0,100,0,0,0,0,0,0,0,0
6338,St Marys IC,,,AK,,62.051525,-163.172567,Bethel,,,,"Alaska Village Elec Coop, Inc",No balancing authority,,AK,AKMS,DFO,OIL,0,100,0,0,0,0,0,0,0,0,0
57061,St. Michael,,,AK,,63.4775,-162.0383,Nome,,,,"Alaska Village Elec Coop, Inc",No balancing authority,,AK,AKMS,DFO,OIL,,,,,,,,,,,
57055,Stebbins,,,AK,,63.521047,-162.286322,Nome,,,,"Alaska Village Elec Coop, Inc",No balancing authority,,AK,AKMS,DFO,OIL,0,100,0,0,0,0,0,0,0,0,0
60250,Swampy Acres Microgrid,,,AK,,57.77556,-152.48028,Kodiak Island,,,,Kodiak Electric Assn Inc,No balancing authority,,AK,AKMS,DFO,OIL,0,100,0,0,0,0,0,0,0,0,0
70,Swan Lake,,,AK,,55.615208,-131.356111,Ketchikan Gateway,,,,Ketchikan Public Utilities,No balancing authority,,AK,AKMS,WAT,HYDRO,0,0,0,0,100,0,0,0,0,0,0
71,Terror Lake Microgrid,,,AK,,57.6861,-152.895,Kodiak Island,,,,Kodiak Electric Assn Inc,No balancing authority,,AK,AKMS,WAT,HYDRO,0,0,0,0,100,0,0,0,0,0,0
52184,Tesoro Kenai Cogeneration Plant,,,AK,,60.677,-151.3815,Kenai Peninsula,,,,Homer Electric Assn Inc,No balancing authority,,AK,AKGD,NG,GAS,0,0,100,0,0,0,0,0,0,0,0
7414,Thorne Bay Plant,,,AK,,55.68586,-132.52892,Prince of Wales-Hyder,,,,Alaska Power and Telephone Co,No balancing authority,,AK,AKMS,DFO,OIL,0,100,0,0,0,0,0,0,0,0,0
58278,TNSG North Plant,,,AK,,70.235278,-148.383611,North Slope,,,,TDX North Slope Generating Co,No balancing authority,,AK,AKMS,NG,GAS,0,0,100,0,0,0,0,0,0,0,0
58117,TNSG South Plant,,,AK,,70.2,-148.466667,North Slope,,,,TDX North Slope Generating Co,No balancing authority,,AK,AKMS,NG,GAS,,,,,,,,,,,
6348,Togiak,,,AK,,59.059744,-160.380278,Dillingham,,,,"Alaska Village Elec Coop, Inc",No balancing authority,,AK,AKMS,DFO,OIL,0,100,0,0,0,0,0,0,0,0,0
406,Tok,,,AK,,63.33552,-142.99997,Southeast Fairbanks,,,,Alaska Power and Telephone Co,No balancing authority,,AK,AKMS,DFO,OIL,0,100,0,0,0,0,0,0,0,0,0
57067,Toksook Bay,,,AK,,60.530142,-165.108575,Bethel,,,,"Alaska Village Elec Coop, Inc",No balancing authority,,AK,AKMS,DFO,OIL,0,100,0,0,0,0,0,0,0,0,0
61166,Tyee Lake Hydroelectric Facility,,,AK,,56.216403,-131.504344,Wrangell,,,,Southeast Alaska Power Agency,No balancing authority,,AK,AKMS,WAT,HYDRO,0,0,0,0,100,0,0,0,0,0,0
6299,Unalakleet,,,AK,,63.876789,-160.790414,Nome,,,,Unalakleet Valley Elec Coop,No balancing authority,,AK,AKMS,DFO,OIL,0,100,0,0,0,0,0,0,0,0,0
7503,Unalaska Power Module,,,AK,,53.863993,-166.512591,Aleutians West,,,,City of Unalaska - (AK),No balancing authority,,AK,AKMS,DFO,OIL,0,100,0,0,0,0,0,0,0,0,0
54422,Unisea G 2,,,AK,,53.8796,-166.5532,Aleutians West,,,,City of Unalaska - (AK),No balancing authority,,AK,AKMS,DFO,OIL,0,100,0,0,0,0,0,0,0,0,0
50711,University of Alaska Fairbanks,,,AK,,64.854171,-147.822075,Fairbanks North Star,,,,Golden Valley Elec Assn Inc,No balancing authority,,AK,AKGD,SUB,COAL,99.50354506,0.491564279,0.004890661,0,0,0,0,0,0,0,0
57054,Upper Kalskag,,,AK,,61.526858,-160.348128,Bethel,,,,"Alaska Village Elec Coop, Inc",No balancing authority,,AK,AKMS,DFO,OIL,0,100,0,0,0,0,0,0,0,0,0
50308,Utility Plants Section,,,AK,,64.825601,-147.648627,Fairbanks North Star,,,,Golden Valley Elec Assn Inc,No balancing authority,,AK,AKGD,SUB,COAL,100,0,0,0,0,0,0,0,0,0,0
6306,Valdez,,,AK,,61.1303,-146.3647,Valdez Cordova,,,,"Copper Valley Elec Assn, Inc",No balancing authority,,AK,AKMS,DFO,OIL,0,100,0,0,0,0,0,0,0,0,0
7841,Valdez Cogen,,,AK,,61.0839,-146.2529,Valdez Cordova,,,,"Copper Valley Elec Assn, Inc",No balancing authority,,AK,AKMS,WO,OIL,0,100,0,0,0,0,0,0,0,0,0
56147,Viking,,,AK,,55.540708,-133.102344,Prince of Wales-Hyder,,,,Alaska Power and Telephone Co,No balancing authority,,AK,AKMS,DFO,OIL,,,,,,,,,,,
54305,Westward Seafoods,,,AK,,53.858508,-166.55288,Aleutians West,,,,City of Unalaska - (AK),No balancing authority,,AK,AKMS,DFO,OIL,0,100,0,0,0,0,0,0,0,0,0
58977,Whitman,,,AK,,55.328056,-131.530833,Ketchikan Gateway,,,,Ketchikan Public Utilities,No balancing authority,,AK,AKMS,WAT,HYDRO,0,0,0,0,100,0,0,0,0,0,0
95,Wrangell,,,AK,,56.460976,-132.379439,Wrangell,,,,City of Wrangell - (AK),No balancing authority,,AK,AKMS,DFO,OIL,0,100,0,0,0,0,0,0,0,0,0
6637,Yakutat,,,AK,,59.544553,-139.724306,Yakutat,,,,CBY DBA Yakutat Power,No balancing authority,,AK,AKMS,DFO,OIL,0,100,0,0,0,0,0,0,0,0,0
56076,ABC Coke,,,AL,,33.582793,-86.779866,Jefferson,,,,Alabama Power Co,"Southern Company Services, Inc. - Trans",SOCO,SERC,SRSO,COG,COAL,0,0,44.12758621,0,0,0,0,0,0,55.87241379,0
54429,Alabama Pine Pulp,,,AL,,31.5825,-87.4889,Monroe,,,,Alabama Power Co,"Southern Company Services, Inc. - Trans",SOCO,SERC,SRSO,BLQ,BIOMASS,0,0,5.049751946,0,0,94.95024805,0,0,0,0,0
10216,Alabama River Pulp,,,AL,,31.5825,-87.4889,Monroe,,,,Alabama Power Co,"Southern Company Services, Inc. - Trans",SOCO,SERC,SRSO,BLQ,BIOMASS,0,0.052204542,10.09877705,0,0,89.84901841,0,0,0,0,0
7924,Albertville,,,AL,,34.363389,-86.223889,Marshall,,,,Tennessee Valley Authority,Tennessee Valley Authority,TVA,SERC,SRTV,DFO,OIL,,,,,,,,,,,
56018,AMEA Sylacauga Plant,,,AL,,33.1661,-86.2825,Talladega,,,,Alabama Power Co,"Southern Company Services, Inc. - Trans",SOCO,SERC,SRSO,NG,GAS,0,0,100,0,0,0,0,0,0,0,0
60680,ANAD Solar Array,,,AL,,33.626728,-85.969481,Calhoun,,,,Alabama Power Co,"Southern Company Services, Inc. - Trans",SOCO,SERC,SRSO,SUN,SOLAR,0,0,0,0,0,0,0,100,0,0,0
2,Bankhead Dam,,,AL,,33.458665,-87.356823,Tuscaloosa,,,,Alabama Power Co,"Southern Company Services, Inc. - Trans",SOCO,SERC,SRSO,WAT,HYDRO,0,0,0,0,100,0,0,0,0,0,0
3,Barry,,,AL,,31.0069,-88.0103,Mobile,,,,Alabama Power Co,"Southern Company Services, Inc. - Trans",SOCO,SERC,SRSO,BIT,COAL,31.19326063,0,68.80673937,0,0,0,0,0,0,0,0
702,Bartletts Ferry,,,AL,,32.663,-85.0908,Lee,,,,Georgia Power Co,"Southern Company Services, Inc. - Trans",SOCO,SERC,SRSO,WAT,HYDRO,0,0,0,0,100,0,0,0,0,0,0
6150,Bellefonte,,,AL,,34.7092,-85.9278,Jackson,,,,Tennessee Valley Authority,Tennessee Valley Authority,TVA,SERC,SRTV,DFO,OIL,,,,,,,,,,,
46,Browns Ferry,,,AL,,34.7042,-87.1189,Limestone,,,,Tennessee Valley Authority,Tennessee Valley Authority,TVA,SERC,SRTV,NUC,NUCLEAR,0,0,0,100,0,0,0,0,0,0,0
55409,Calhoun Generating Facility,,,AL,,33.5883,-85.9731,Calhoun,,,,Alabama Power Co,"Southern Company Services, Inc. - Trans",SOCO,SERC,SRSO,NG,GAS,0,22.46408976,77.53591024,0,0,0,0,0,0,0,0
55440,Central Alabama Gen Station,,,AL,,32.6497,-86.74,Autauga,,,,Alabama Power Co,"Southern Company Services, Inc. - Trans",SOCO,SERC,SRSO,NG,GAS,0,0,100,0,0,0,0,0,0,0,0
47,Colbert,,,AL,,34.7439,-87.8486,Colbert,,,,Tennessee Valley Authority,Tennessee Valley Authority,TVA,SERC,SRTV,NG,GAS,0,0,100,0,0,0,0,0,0,0,0
54985,Crestwood Dothan,,,AL,,31.262356,-85.402737,Houston,,,,City of Dothan - (AL),"Southern Company Services, Inc. - Trans",SOCO,SERC,SRSO,DFO,OIL,0,100,0,0,0,0,0,0,0,0,0
61924,"Cumblerland Land Holdings, LLC",,,AL,,34.94974,-86.868053,Limestone,,,,Tennessee Valley Authority,Tennessee Valley Authority,TVA,SERC,SRTV,SUN,SOLAR,0,0,0,0,0,0,0,100,0,0,0
55292,Decatur Energy Center,,,AL,,34.6292,-87.0214,Morgan,,,,Tennessee Valley Authority,Tennessee Valley Authority,TVA,SERC,SRTV,NG,GAS,0,0,100,0,0,0,0,0,0,0,0
58061,Decatur-Morgan Co LFG Recovery Project,,,AL,,34.623611,-87.101111,Morgan,,,,Joe Wheeler Elec Member Corp,Tennessee Valley Authority,TVA,SERC,SRTV,LFG,BIOMASS,0,0,0,0,0,100,0,0,0,0,0
7897,E B Harris Generating Plant,,,AL,,32.381352,-86.574366,Autauga,,,,Alabama Power Co,"Southern Company Services, Inc. - Trans",SOCO,SERC,SRSO,NG,GAS,0,0,100,0,0,0,0,0,0,0,0
26,E C Gaston,,,AL,,33.244211,-86.458056,Shelby,,,,Alabama Power Co,"Southern Company Services, Inc. - Trans",SOCO,SERC,SRSO,BIT,COAL,68.50675442,0.002928982,31.4903166,0,0,0,0,0,0,0,0
60679,Fort Rucker Solar Array,,,AL,,31.331148,-85.73019,Dale,,,,Alabama Power Co,"Southern Company Services, Inc. - Trans",SOCO,SERC,SRSO,SUN,SOLAR,0,0,0,0,0,0,0,100,0,0,0
7,Gadsden,,,AL,,34.0128,-85.9708,Etowah,,,,Alabama Power Co,"Southern Company Services, Inc. - Trans",SOCO,SERC,SRSO,NG,GAS,,,,,,,,,,,
53,Gantt,,,AL,,31.4033,-86.479469,Covington,,,,PowerSouth Energy Cooperative,PowerSouth Energy Cooperative,AEC,SERC,SRSO,WAT,HYDRO,0,0,0,0,100,0,0,0,0,0,0
54789,Georgia-Pacific Brewton Mill,,,AL,,31.077,-87.1116,Escambia,,,,Alabama Power Co,"Southern Company Services, Inc. - Trans",SOCO,SERC,SRSO,BLQ,BIOMASS,0,0,44.19245377,0,0,55.80754623,0,0,0,0,0
10699,Georgia-Pacific Consr Prods LP-Naheola,,,AL,,32.2268,-88.0252,Choctaw,,,,Alabama Power Co,"Southern Company Services, Inc. - Trans",SOCO,SERC,SRSO,BLQ,BIOMASS,0,0.259076627,12.78065669,0,0,86.96026668,0,0,0,0,0
707,Goat Rock,,,AL,,32.6096,-85.0795,Lee,,,,Georgia Power Co,"Southern Company Services, Inc. - Trans",SOCO,SERC,SRSO,WAT,HYDRO,0,0,0,0,100,0,0,0,0,0,0
10,Greene County,,,AL,,32.6017,-87.7811,Greene,,,,Alabama Power Co,"Southern Company Services, Inc. - Trans",SOCO,SERC,SRSO,NG,GAS,0,0.343951387,99.65604861,0,0,0,0,0,0,0,0
48,Guntersville,,,AL,,34.421272,-86.393931,Marshall,,,,Tennessee Valley Authority,Tennessee Valley Authority,TVA,SERC,SRTV,WAT,HYDRO,0,0,0,0,100,0,0,0,0,0,0
11,H Neely Henry Dam,,,AL,,33.7845,-86.0524,Calhoun,,,,Alabama Power Co,"Southern Company Services, Inc. - Trans",SOCO,SERC,SRSO,WAT,HYDRO,0,0,0,0,100,0,0,0,0,0,0
6188,Harris Dam,,,AL,,33.258281,-85.616047,Randolph,,,,Alabama Power Co,"Southern Company Services, Inc. - Trans",SOCO,SERC,SRSO,WAT,HYDRO,0,0,0,0,100,0,0,0,0,0,0
55411,Hillabee Energy Center,,,AL,,33.000669,-85.903278,Tallapoosa,,,,Alabama Power Co,"Southern Company Services, Inc. - Trans",SOCO,SERC,SRSO,NG,GAS,0,0,100,0,0,0,0,0,0,0,0
55241,Hog Bayou Energy Center,,,AL,,30.7478,-88.0575,Mobile,,,,Alabama Power Co,"Southern Company Services, Inc. - Trans",SOCO,SERC,SRSO,NG,GAS,0,0,100,0,0,0,0,0,0,0,0
12,Holt Dam,,,AL,,33.2553,-87.4495,Tuscaloosa,,,,Alabama Power Co,"Southern Company Services, Inc. - Trans",SOCO,SERC,SRSO,WAT,HYDRO,0,0,0,0,100,0,0,0,0,0,0
54752,International Paper Pine Hill Mill,,,AL,,31.9698,-87.4806,Wilcox,,,,Alabama Power Co,"Southern Company Services, Inc. - Trans",SOCO,SERC,SRSO,BLQ,BIOMASS,0.004461962,0.330452813,13.84432862,0,0,85.8207566,0,0,0,0,0
52140,International Paper-Prattville Mill,,,AL,,32.4187,-86.4718,Autauga,,,,Alabama Power Co,"Southern Company Services, Inc. - Trans",SOCO,SERC,SRSO,BLQ,BIOMASS,0,0.522123157,26.98907212,0,0,72.48880473,0,0,0,0,0
54096,International Paper-Riverdale Mill,,,AL,,32.426016,-86.870912,Dallas,,,,Alabama Power Co,"Southern Company Services, Inc. - Trans",SOCO,SERC,SRSO,NG,GAS,0,0,76.68133396,0,0,23.31866604,0,0,0,0,0
6002,James H Miller Jr,,,AL,,33.6319,-87.0597,Jefferson,,,,Alabama Power Co,"Southern Company Services, Inc. - Trans",SOCO,SERC,SRSO,SUB,COAL,98.65111259,0,1.348887414,0,0,0,0,0,0,0,0
6131,Jones Bluff,,,AL,,32.324242,-86.784319,Autauga,,,,Alabama Power Co,"Southern Company Services, Inc. - Trans",SOCO,SERC,SRSO,WAT,HYDRO,0,0,0,0,100,0,0,0,0,0,0
13,Jordan Dam,,,AL,,32.6189,-86.2548,Elmore,,,,Alabama Power Co,"Southern Company Services, Inc. - Trans",SOCO,SERC,SRSO,WAT,HYDRO,0,0,0,0,100,0,0,0,0,0,0
6001,Joseph M Farley,,,AL,,31.2231,-85.1116,Houston,,,,Alabama Power Co,"Southern Company Services, Inc. - Trans",SOCO,SERC,SRSO,NUC,NUCLEAR,0,0,0,100,0,0,0,0,0,0,0
62449,Kimberly Clark Mobile - CHP Plant,,,AL,,30.737741,-88.04977,Mobile,,,,Alabama Power Co,"Southern Company Services, Inc. - Trans",SOCO,SERC,SRSO,NG,GAS,0,0,100,0,0,0,0,0,0,0,0
60583,LaFayette Solar Farm,,,AL,,32.876313,-85.38821,Chambers,,,,Alabama Power Co,"Southern Company Services, Inc. - Trans",SOCO,SERC,SRSO,SUN,SOLAR,0,0,0,0,0,0,0,100,0,0,0
15,Lay Dam,,,AL,,32.9633,-86.5187,Chilton,,,,Alabama Power Co,"Southern Company Services, Inc. - Trans",SOCO,SERC,SRSO,WAT,HYDRO,0,0,0,0,100,0,0,0,0,0,0
18,Lewis Smith Dam,,,AL,,33.9406,-87.1077,Walker,,,,Alabama Power Co,"Southern Company Services, Inc. - Trans",SOCO,SERC,SRSO,WAT,HYDRO,0,0,0,0,100,0,0,0,0,0,0
14,Logan Martin Dam,,,AL,,33.425878,-86.337547,Talladega,,,,Alabama Power Co,"Southern Company Services, Inc. - Trans",SOCO,SERC,SRSO,WAT,HYDRO,0,0,0,0,100,0,0,0,0,0,0
16,Martin Dam,,,AL,,32.680394,-85.911442,Elmore,,,,Alabama Power Co,"Southern Company Services, Inc. - Trans",SOCO,SERC,SRSO,WAT,HYDRO,0,0,0,0,100,0,0,0,0,0,0
7063,McIntosh (7063),,,AL,,31.2546,-88.0299,Washington,,,,PowerSouth Energy Cooperative,PowerSouth Energy Cooperative,AEC,SERC,SRSO,NG,GAS,0,0.075873474,99.92412653,0,0,0,0,0,0,0,0
533,McWilliams,,,AL,,31.400255,-86.476449,Covington,,,,PowerSouth Energy Cooperative,PowerSouth Energy Cooperative,AEC,SERC,SRSO,NG,GAS,0,0.026738486,99.97326151,0,0,0,0,0,0,0,0
38,Millers Ferry,,,AL,,32.100881,-87.399767,Wilcox,,,,Alabama Power Co,"Southern Company Services, Inc. - Trans",SOCO,SERC,SRSO,WAT,HYDRO,0,0,0,0,100,0,0,0,0,0,0
17,Mitchell Dam,,,AL,,32.806025,-86.444892,Coosa,,,,Alabama Power Co,"Southern Company Services, Inc. - Trans",SOCO,SERC,SRSO,WAT,HYDRO,0,0,0,0,100,0,0,0,0,0,0
55293,Morgan Energy Center,,,AL,,34.6397,-87.0639,Morgan,,,,Tennessee Valley Authority,Tennessee Valley Authority,TVA,SERC,SRTV,NG,GAS,0,0,100,0,0,0,0,0,0,0,0
62462,Muscle Shoals,,,AL,,34.76973,-87.90454,Colbert,,,,Tennessee Valley Authority,Tennessee Valley Authority,TVA,SERC,SRTV,SUN,SOLAR,0,0,0,0,0,0,0,100,0,0,0
55044,Packaging Corporation of America Jackson Mill,,,AL,,31.4894,-87.8989,Clarke,,,,Alabama Power Co,"Southern Company Services, Inc. - Trans",SOCO,SERC,SRSO,BLQ,BIOMASS,0,0.075388581,30.04555485,0,0,69.87905657,0,0,0,0,0
7710,Plant H. Allen Franklin,,,AL,,32.6078,-85.0975,Lee,,,,Georgia Power Co,"Southern Company Services, Inc. - Trans",SOCO,SERC,SRSO,NG,GAS,0,0,100,0,0,0,0,0,0,0,0
55,Point A,,,AL,,31.361146,-86.518307,Covington,,,,PowerSouth Energy Cooperative,PowerSouth Energy Cooperative,AEC,SERC,SRSO,WAT,HYDRO,0,0,0,0,100,0,0,0,0,0,0
61901,Redstone Arsenal Hybrid,,,AL,,34.610987,-86.611551,Madison,,,,Tennessee Valley Authority,Tennessee Valley Authority,TVA,SERC,SRTV,SUN,SOLAR,0,0,0,0,0,0,0,99.83755874,0,0,0.16244126
60058,"River Bend Solar, LLC",,,AL,,34.831511,-87.842204,Lauderdale,,,,Tennessee Valley Authority,Tennessee Valley Authority,TVA,SERC,SRTV,SUN,SOLAR,0,0,0,0,0,0,0,100,0,0,0
7698,SABIC Innovative Plastics - Burkville,,,AL,,32.310226,-86.52542,Lowndes,,,,Alabama Power Co,"Southern Company Services, Inc. - Trans",SOCO,SERC,SRSO,NG,GAS,0,0,100,0,0,0,0,0,0,0,0
59710,Sand Valley Power Station,,,AL,,34.343875,-85.866103,Dekalb,,,,Sand Mountain Electric Coop,Tennessee Valley Authority,TVA,SERC,SRTV,LFG,BIOMASS,0,0,0,0,0,100,0,0,0,0,0
50359,Sloss Industries Corp,,,AL,,33.568164,-86.79873,Jefferson,,,,Alabama Power Co,"Southern Company Services, Inc. - Trans",SOCO,SERC,SRSO,NG,GAS,,,,,,,,,,,
55271,Tenaska Lindsay Hill Generating Station,,,AL,,32.6514,-86.7386,Autauga,,,,Alabama Power Co,"Southern Company Services, Inc. - Trans",SOCO,SERC,SRSO,NG,GAS,0,0,100,0,0,0,0,0,0,0,0
7721,Theodore Cogeneration,,,AL,,30.525445,-88.128477,Mobile,,,,Alabama Power Co,"Southern Company Services, Inc. - Trans",SOCO,SERC,SRSO,NG,GAS,0,0,100,0,0,0,0,0,0,0,0
19,Thurlow Dam,,,AL,,32.535436,-85.887614,Elmore,,,,Alabama Power Co,"Southern Company Services, Inc. - Trans",SOCO,SERC,SRSO,WAT,HYDRO,0,0,0,0,100,0,0,0,0,0,0
54216,U S Alliance Coosa Pines,,,AL,,33.328107,-86.356825,Talladega,,,,Alabama Power Co,"Southern Company Services, Inc. - Trans",SOCO,SERC,SRSO,BLQ,BIOMASS,0,0,28.33011828,0,0,71.66988172,0,0,0,0,0
54550,W&T Onshore Treating Facility (OTF),,,AL,,30.43203,-88.18241,Mobile,,,,Alabama Power Co,"Southern Company Services, Inc. - Trans",SOCO,SERC,SRSO,NG,GAS,0,0,100,0,0,0,0,0,0,0,0
4,Walter Bouldin Dam,,,AL,,32.583889,-86.283056,Elmore,,,,Alabama Power Co,"Southern Company Services, Inc. - Trans",SOCO,SERC,SRSO,WAT,HYDRO,0,0,0,0,100,0,0,0,0,0,0
55138,Walton Discover Power Facility,,,AL,,32.54098,-85.038879,LEE,,,,Georgia Transmission Corp,"Southern Company Services, Inc. - Trans",SOCO,SERC,SRSO,NG,GAS,0,0,100,0,0,0,0,0,0,0,0
7697,Washington County Cogen (Olin),,,AL,,31.2504,-88.0156,Washington,,,,Alabama Power Co,"Southern Company Services, Inc. - Trans",SOCO,SERC,SRSO,NG,GAS,0,0,100,0,0,0,0,0,0,0,0
20,Weiss Dam,,,AL,,34.172142,-85.753806,Cherokee,,,,Alabama Power Co,"Southern Company Services, Inc. - Trans",SOCO,SERC,SRSO,WAT,HYDRO,0,0,0,0,100,0,0,0,0,0,0
57467,Westervelt Moundville Cogen,,,AL,,32.960714,-87.655419,Hale,,,,Alabama Power Co,"Southern Company Services, Inc. - Trans",SOCO,SERC,SRSO,WDS,BIOMASS,0,0,0,0,0,100,0,0,0,0,0
54802,WestRock Coated Board,,,AL,,32.1761,-85.0272,Russell,,,,Alabama Power Co,"Southern Company Services, Inc. - Trans",SOCO,SERC,SRSO,NG,GAS,0,0,26.79817041,0,0,73.20182959,0,0,0,0,0
54763,WestRock Demopolis Mill,,,AL,,32.4541,-87.9759,Marengo,,,,Alabama Power Co,"Southern Company Services, Inc. - Trans",SOCO,SERC,SRSO,BLQ,BIOMASS,0,0.091009329,1.899805115,0,0,98.00918556,0,0,0,0,0
49,Wheeler Dam,,,AL,,34.8069,-87.3819,Lawrence,,,,Tennessee Valley Authority,Tennessee Valley Authority,TVA,SERC,SRTV,WAT,HYDRO,0,0,0,0,100,0,0,0,0,0,0
6440,Wilson Dam,,,AL,,34.79782,-87.62537,Lauderdale,,,,Tennessee Valley Authority,Tennessee Valley Authority,TVA,SERC,SRTV,WAT,HYDRO,0,0,0,0,100,0,0,0,0,0,0
21,Yates Dam,,,AL,,32.5743,-85.8901,Elmore,,,,Alabama Power Co,"Southern Company Services, Inc. - Trans",SOCO,SERC,SRSO,WAT,HYDRO,0,0,0,0,100,0,0,0,0,0,0
54730,Yellowhammer Gas Plant,,,AL,,30.403538,-88.12833,MOBILE,,,,Alabama Power Co,"Southern Company Services, Inc. - Trans",SOCO,SERC,SRSO,NG,GAS,,,,,,,,,,,
8055,Arkansas Nuclear One,,,AR,,35.311,-93.2351,Pope,,,,Entergy Arkansas Inc,"Midcontinent Independent Transmission System Operator, Inc..",MISO,SERC,SRMV,NUC,NUCLEAR,0,0,0,100,0,0,0,0,0,0,0
54104,Ashdown,,,AR,,33.6417,-94.1083,Little River,,,,Southwestern Electric Power Co,Southwest Power Pool,SWPP,SERC,SPSO,BLQ,BIOMASS,5.684022852,0,15.44215481,0,0,77.5407159,0,0,0,1.333106442,0
182,Beaver Dam,,,AR,,36.421507,-93.847373,Carroll,,,,Southwestern Power Administration,Southwestern Power Administration,SPA,MRO,SPSO,WAT,HYDRO,0,0,0,0,100,0,0,0,0,0,0
197,Blakely Mountain,,,AR,,34.570984,-93.194425,Garland,,,,Entergy Arkansas Inc,"Midcontinent Independent Transmission System Operator, Inc..",MISO,SERC,SRMV,WAT,HYDRO,0,0,0,0,100,0,0,0,0,0,0
64392,Branch Solar Farm,,,AR,,35.306183,-93.925758,Franklin,,,,Oklahoma Gas & Electric Co,Southwest Power Pool,SWPP,SERC,SPSO,SUN,SOLAR,0,0,0,0,0,0,0,100,0,0,0
198,Bull Shoals,,,AR,,36.3635,-92.5763,Marion,,,,Southwestern Power Administration,Southwestern Power Administration,SPA,MRO,SPSO,WAT,HYDRO,0,0,0,0,100,0,0,0,0,0,0
202,Carl Bailey,,,AR,,35.260102,-91.363426,Woodruff,,,,Entergy Arkansas Inc,"Midcontinent Independent Transmission System Operator, Inc..",MISO,SERC,SRMV,NG,GAS,,,,,,,,,,,
166,Carpenter,,,AR,,34.4425,-93.0262,Garland,,,,Entergy Arkansas Inc,"Midcontinent Independent Transmission System Operator, Inc..",MISO,SERC,SRMV,WAT,HYDRO,0,0,0,0,100,0,0,0,0,0,0
63295,Chicot Solar,,,AR,,33.479,-91.349,Chicot,,,,Entergy Arkansas LLC,"Midcontinent Independent Transmission System Operator, Inc..",MISO,SERC,SRMV,SUN,SOLAR,0,0,0,0,0,0,0,100,0,0,0
64444,City of Paris Solar,,,AR,,35.301,-93.734,Logan,,,,City of Paris - (AR),Southwest Power Pool,SWPP,MRO,SRMV,SUN,SOLAR,0,0,0,0,0,0,0,100,0,0,0
56505,City Water & Light - City of Jonesboro,,,AR,,35.848561,-90.725377,Craighead,,,,City Water and Light Plant,"Midcontinent Independent Transmission System Operator, Inc..",MISO,SERC,SPSO,NG,GAS,0,0.101742872,99.89825713,0,0,0,0,0,0,0,0
50638,Clearwater Paper APP CB,,,AR,,33.7061,-91.2371,Desha,,,,Entergy Arkansas Inc,"Midcontinent Independent Transmission System Operator, Inc..",MISO,SERC,SRMV,BLQ,BIOMASS,0,0.123307087,31.62346019,0,0,68.25323272,0,0,0,0,0
7246,Dam 2,,,AR,,33.986501,-91.315788,Desha,,,,Entergy Arkansas Inc,"Midcontinent Independent Transmission System Operator, Inc..",MISO,SERC,SRMV,WAT,HYDRO,0,0,0,0,100,0,0,0,0,0,0
199,Dardanelle,,,AR,,35.2503,-93.1686,Pope,,,,Southwestern Power Administration,Southwestern Power Administration,SPA,MRO,SPSO,WAT,HYDRO,0,0,0,0,100,0,0,0,0,0,0
187,Degray,,,AR,,34.211913,-93.110963,Clark,,,,Entergy Arkansas Inc,"Midcontinent Independent Transmission System Operator, Inc..",MISO,SERC,SRMV,WAT,HYDRO,0,0,0,0,100,0,0,0,0,0,0
55340,Dell Power Plant,,,AR,,35.8619,-90.0253,Mississippi,,,,"Associated Electric Coop, Inc","Associated Electric Cooperative, Inc.",AECI,SERC,SRMW,NG,GAS,0,0.165232703,99.8347673,0,0,0,0,0,0,0,0
56489,Elkins Generating Center,,,AR,,35.9714,-94.0014,Washington,,,,Ozarks Electric Coop Corp - (AR),Southwest Power Pool,SWPP,SERC,SPSO,NG,GAS,0,0,100,0,0,0,0,0,0,0,0
7040,Ellis Hydro,,,AR,,35.351361,-94.294349,Crawford,,,,Southwestern Electric Power Co,Southwest Power Pool,SWPP,SERC,SPSO,WAT,HYDRO,0,0,0,0,100,0,0,0,0,0,0
61839,FECC Solar Benton,,,AR,,34.638429,-92.578347,Saline,,,,First Electric Coop Corp,"Midcontinent Independent Transmission System Operator, Inc..",MISO,SERC,SRMV,SUN,SOLAR,0,0,0,0,0,0,0,100,0,0,0
6138,Flint Creek Power Plant,,,AR,,36.2561,-94.5241,Benton,,,,Southwestern Electric Power Co,Southwest Power Pool,SWPP,MRO,SPSO,SUB,COAL,99.83831335,0.161686654,0,0,0,0,0,0,0,0,0
64262,Forrest City- Eldridge Road,,,AR,,35.03789,-90.80707,St Francis,,,,Woodruff Electric Coop Corp,"Midcontinent Independent Transmission System Operator, Inc..",MISO,SERC,SRMV,SUN,SOLAR,0,0,0,0,0,0,0,100,0,0,0
64261,Forrest City- Prison Site,,,AR,,34.97953,-90.80602,St Francis,,,,Entergy Arkansas LLC,"Midcontinent Independent Transmission System Operator, Inc..",MISO,SERC,SRMV,SUN,SOLAR,0,0,0,0,0,0,0,100,0,0,0
10050,Fourche Creek Wastewater,,,AR,,34.6968,-92.165,Pulaski,,,,Entergy Arkansas Inc,"Midcontinent Independent Transmission System Operator, Inc..",MISO,SERC,SRMV,OBG,BIOMASS,0,0,6.946877955,0,0,93.05312204,0,0,0,0,0
7825,Fulton,,,AR,,33.6094,-93.7924,Hempstead,,,,Southwestern Electric Power Co,Southwest Power Pool,SWPP,SERC,SPSO,NG,GAS,0,0,100,0,0,0,0,0,0,0,0
65351,General Dynamics,,,AR,,33.602,-92.541,Ouachita,,,,Ouachita Electric Coop Corp,"Midcontinent Independent Transmission System Operator, Inc..",MISO,SERC,SRMV,SUN,SOLAR,0,0,0,0,0,0,0,100,0,0,0
10606,Georgia-Pacific Crossett LLC,,,AR,,33.1421,-91.975,Ashley,,,,Entergy Arkansas Inc,"Midcontinent Independent Transmission System Operator, Inc..",MISO,SERC,SRMV,NG,GAS,0,0,100,0,0,0,0,0,0,0,0
188,Greers Ferry Lake,,,AR,,35.5207,-91.9953,Cleburne,,,,Southwestern Power Administration,Southwestern Power Administration,SPA,MRO,SPSO,WAT,HYDRO,0,0,0,0,100,0,0,0,0,0,0
56328,Harry D. Mattison Power Plant,,,AR,,36.1855,-94.2841,Washington,,,,Southwestern Electric Power Co,Southwest Power Pool,SWPP,MRO,SPSO,NG,GAS,0,0,100,0,0,0,0,0,0,0,0
55418,Hot Spring Energy Facility,,,AR,,34.29759,-92.868344,Hot Spring,,,,Entergy Arkansas Inc,"Midcontinent Independent Transmission System Operator, Inc..",MISO,SERC,SRMV,NG,GAS,0,0,100,0,0,0,0,0,0,0,0
64263,Hot Springs 2020,,,AR,,34.421,-93.19485,Garland,,,,Entergy Arkansas LLC,Southwest Power Pool,SWPP,SERC,SRMV,SUN,SOLAR,0,0,0,0,0,0,0,100,0,0,0
6641,Independence,,,AR,,35.678442,-91.408761,Independence,,,,Entergy Arkansas Inc,"Midcontinent Independent Transmission System Operator, Inc..",MISO,SERC,SRMV,SUB,COAL,99.66533936,0.334660637,0,0,0,0,0,0,0,0,0
56564,John W. Turk Jr. Power Plant,,,AR,,33.649722,-93.811944,Hempstead,,,,Southwestern Electric Power Co,Southwest Power Pool,SWPP,MRO,SPSO,SUB,COAL,99.63569488,0,0.364305122,0,0,0,0,0,0,0,0
170,Lake Catherine,,,AR,,34.4341,-92.9049,Hot Spring,,,,Entergy Arkansas Inc,"Midcontinent Independent Transmission System Operator, Inc..",MISO,SERC,SRMV,NG,GAS,0,0,100,0,0,0,0,0,0,0,0
54283,Lee Creek Water Treatment Facility,,,AR,,35.484488,-94.392858,Crawford,,,,Arkansas Valley Elec Coop Corp,"Midcontinent Independent Transmission System Operator, Inc..",MISO,MRO,SRMV,WAT,HYDRO,,,,,,,,,,,
55714,Magnet Cove Generating Station,,,AR,,34.4297,-92.8317,Hot Spring,,,,Entergy Arkansas Inc,"Midcontinent Independent Transmission System Operator, Inc..",MISO,SERC,SRMV,NG,GAS,0,0,100,0,0,0,0,0,0,0,0
203,McClellan,,,AR,,33.5648,-92.7917,Ouachita,,,,Entergy Arkansas Inc,"Midcontinent Independent Transmission System Operator, Inc..",MISO,SERC,SRMV,NG,GAS,0,0,100,0,0,0,0,0,0,0,0
193,Municipal Light,,,AR,,36.3858,-90.1867,Clay,,,,Southwestern Power Administration,Southwestern Power Administration,SPA,SERC,SRMV,DFO,OIL,0,100,0,0,0,0,0,0,0,0,0
7166,Murray,,,AR,,34.7956,-92.3569,Pulaski,,,,Entergy Arkansas Inc,"Midcontinent Independent Transmission System Operator, Inc..",MISO,SERC,SRMV,WAT,HYDRO,0,0,0,0,100,0,0,0,0,0,0
195,Narrows (AR),,,AR,,34.148427,-93.715168,Pike,,,,Southwestern Electric Power Co,Southwest Power Pool,SWPP,SERC,SPSO,WAT,HYDRO,0,0,0,0,100,0,0,0,0,0,0
62682,Noland Wastewater Treatment Plant Hybrid,,,AR,,36.082301,-94.067149,Washington,,,,Ozarks Electric Coop Corp - (AR),Southwest Power Pool,SWPP,MRO,SPSO,SUN,SOLAR,0,0,0,0,0,0,0,100,0,0,0
196,Norfork,,,AR,,36.2491,-92.2401,Baxter,,,,Southwestern Power Administration,Southwestern Power Administration,SPA,MRO,SPSO,WAT,HYDRO,0,0,0,0,100,0,0,0,0,0,0
172,Osceola (AR),,,AR,,35.705381,-89.9689,Mississippi,,,,Entergy Arkansas Inc,"Midcontinent Independent Transmission System Operator, Inc..",MISO,SERC,SRMV,DFO,OIL,,,,,,,,,,,
55221,Oswald Generating Station,,,AR,,34.5923,-92.2166,Pulaski,,,,Entergy Arkansas Inc,"Midcontinent Independent Transmission System Operator, Inc..",MISO,SERC,SRMV,NG,GAS,0,0,100,0,0,0,0,0,0,0,0
6142,Ozark,,,AR,,35.4693,-93.8175,Franklin,,,,Southwestern Power Administration,Southwestern Power Administration,SPA,MRO,SPSO,WAT,HYDRO,0,0,0,0,100,0,0,0,0,0,0
60924,Ozarks Natural Energy Community Solar,,,AR,,36.164296,-94.082269,Washington,,,,Ozarks Electric Coop Corp - (AR),Southwest Power Pool,SWPP,MRO,SPSO,SUN,SOLAR,0,0,0,0,0,0,0,100,0,0,0
8015,Paragould Reciprocating,,,AR,,36.0242,-90.5094,Greene,,,,Paragould Light & Water Comm,Southwestern Power Administration,SPA,MRO,SPSO,NG,GAS,0,0,100,0,0,0,0,0,0,0,0
7283,Paragould Turbine,,,AR,,36.024272,-90.509229,Greene,,,,Paragould Light & Water Comm,Southwestern Power Administration,SPA,MRO,SPSO,NG,GAS,0,0,100,0,0,0,0,0,0,0,0
55075,Pine Bluff Energy Center,,,AR,,34.2181,-91.9025,Jefferson,,,,Entergy Arkansas Inc,"Midcontinent Independent Transmission System Operator, Inc..",MISO,SERC,SRMV,NG,GAS,0,0,100,0,0,0,0,0,0,0,0
10627,Pine Bluff Mill,,,AR,,34.221213,-91.907365,Jefferson,,,,Entergy Arkansas Inc,"Midcontinent Independent Transmission System Operator, Inc..",MISO,SERC,SRMV,BLQ,BIOMASS,0,0,19.17271314,0,0,80.82728686,0,0,0,0,0
56456,Plum Point Energy Station,,,AR,,35.6644,-89.9489,Mississippi,,,,Entergy Arkansas Inc,"Midcontinent Independent Transmission System Operator, Inc..",MISO,SERC,SRMV,SUB,COAL,99.70611655,0.293883453,0,0,0,0,0,0,0,0,0
174,Remmel,,,AR,,34.4272,-92.8941,Hot Spring,,,,Entergy Arkansas Inc,"Midcontinent Independent Transmission System Operator, Inc..",MISO,SERC,SRMV,WAT,HYDRO,0,0,0,0,100,0,0,0,0,0,0
56079,Riceland Foods Cogeneration Plant,,,AR,,34.5136,-91.5331,Arkansas,,,,Entergy Arkansas Inc,"Midcontinent Independent Transmission System Operator, Inc..",MISO,SERC,SRMV,OBS,BIOMASS,,,,,,,,,,,
61869,Scenic Hill Solar III,,,AR,,35.46715,-93.51517,Johnson,,,,Clarksville Light & Water Co,Southwestern Power Administration,SPA,SERC,SPSO,SUN,SOLAR,0,0,0,0,0,0,0,100,0,0,0
63627,"Scenic Hill Solar IV, LLC",,,AR,,35.47056,-93.4464,Johnson,,,,Clarksville Light & Water Co,Southwest Power Pool,SWPP,SERC,SRMV,SUN,SOLAR,0,0,0,0,0,0,0,100,0,0,0
59947,SR Camden,,,AR,,33.631538,-92.703611,Calhoun,,,,Ouachita Electric Coop Corp,Southwestern Power Administration,SPA,SERC,SRMV,SUN,SOLAR,0,0,0,0,0,0,0,100,0,0,0
61262,Stuttgart Solar,,,AR,,34.439722,-91.44,Arkansas,,,,Entergy Arkansas Inc,"Midcontinent Independent Transmission System Operator, Inc..",MISO,SERC,SRMV,SUN,SOLAR,0,0,0,0,0,0,0,100,0,0,0
201,Thomas Fitzhugh,,,AR,,35.462382,-93.804926,Franklin,,,,Southwestern Electric Power Co,Southwest Power Pool,SWPP,SERC,SPSO,NG,GAS,0,0,100,0,0,0,0,0,0,0,0
56523,Two Pine Landfill Gas Recovery,,,AR,,34.8332,-92.157103,Pulaski,,,,Entergy Arkansas Inc,"Midcontinent Independent Transmission System Operator, Inc..",MISO,SERC,SRMV,LFG,BIOMASS,0,0,0,0,0,100,0,0,0,0,0
60536,UA Central Utility Plant,,,AR,,36.066336,-94.172254,Washington,,,,Southwestern Electric Power Co,Southwest Power Pool,SWPP,SERC,SPSO,NG,GAS,0,0,100,0,0,0,0,0,0,0,0
55380,Union Power Station,,,AR,,33.296146,-92.589364,Union,,,,Entergy Arkansas Inc,"Midcontinent Independent Transmission System Operator, Inc..",MISO,SERC,SRMV,NG,GAS,0,0,100,0,0,0,0,0,0,0,0
57025,Waste Management Eco Vista LFGTE,,,AR,,36.140849,-94.259713,Washington,,,,Arkansas Electric Coop Corp,"Midcontinent Independent Transmission System Operator, Inc..",MISO,SERC,SPSO,LFG,BIOMASS,0,0,0,0,0,100,0,0,0,0,0
62683,Westside Wastewater Treatment Plant Hybrid,,,AR,,36.04135,-94.140079,Washington,,,,Ozarks Electric Coop Corp - (AR),Southwest Power Pool,SWPP,MRO,SPSO,SUN,SOLAR,0,0,0,0,0,0,0,100,0,0,0
7135,Whillock,,,AR,,35.127591,-92.790273,Conway,,,,Entergy Arkansas Inc,"Midcontinent Independent Transmission System Operator, Inc..",MISO,SERC,SRMV,WAT,HYDRO,0,0,0,0,100,0,0,0,0,0,0
6009,White Bluff,,,AR,,34.4228,-92.1406,Jefferson,,,,Entergy Arkansas Inc,"Midcontinent Independent Transmission System Operator, Inc..",MISO,SERC,SRMV,SUB,COAL,99.7147575,0.285242496,0,0,0,0,0,0,0,0,0
57160,White River Lock and Dam 1,,,AR,,35.757401,-91.636887,Independence,,,,Southwestern Power Administration,Southwestern Power Administration,SPA,SERC,SRMV,WAT,HYDRO,0,0,0,0,100,0,0,0,0,0,0
57161,White River Lock and Dam 2,,,AR,,35.744036,-91.765418,Independence,,,,Southwestern Power Administration,Southwestern Power Administration,SPA,SERC,SRMV,WAT,HYDRO,0,0,0,0,100,0,0,0,0,0,0
57162,White River Lock and Dam 3,,,AR,,35.84361,-91.850521,Stone,,,,Southwestern Power Administration,Southwestern Power Administration,SPA,SERC,SRMV,WAT,HYDRO,0,0,0,0,100,0,0,0,0,0,0
58632,Actus Lend Lease DMAFB,,,AZ,,32.1825,-110.863333,Pima,,,,Tucson Electric Power Co,Tucson Electric Power Company,TEPC,WECC,AZNM,SUN,SOLAR,0,0,0,0,0,0,0,100,0,0,0
61861,AES ES GILBERT,,,AZ,,33.446804,-111.956261,Maricopa,,,,Salt River Project,Salt River Project,SRP,WECC,AZNM,MWH,OTHF,,,,,,,,,,,
57373,Agua Caliente Solar Project,,,AZ,,32.9774,-113.4945,Yuma,,,,San Diego Gas & Electric Co,California Independent System Operator,CISO,WECC,CAMX,SUN,SOLAR,0,0,0,0,0,0,0,100,0,0,0
141,Agua Fria Generating Station,,,AZ,,33.5561,-112.2153,Maricopa,,,,Salt River Project,Salt River Project,SRP,WECC,AZNM,NG,GAS,0,0.20763526,99.79236474,0,0,0,0,0,0,0,0
60684,Amphitheater High School Solar,,,AZ,,32.269,-110.975,Pima,,,,Tucson Electric Power Co,Tucson Electric Power Company,TEPC,WECC,AZNM,SUN,SOLAR,0,0,0,0,0,0,0,100,0,0,0
60964,Apache Solar 1,,,AZ,,32.068141,-109.890379,Cochise,,,,Arizona Electric Pwr Coop Inc,Western Area Power Administration - Desert Southwest Region,WALC,WECC,AZNM,SUN,SOLAR,0,0,0,0,0,0,0,100,0,0,0
160,Apache Station,,,AZ,,32.0603,-109.8931,Cochise,,,,Arizona Electric Pwr Coop Inc,Western Area Power Administration - Desert Southwest Region,WALC,WECC,AZNM,SUB,COAL,44.3701452,0,55.6298548,0,0,0,0,0,0,0,0
118,APS Saguaro Power Plant,,,AZ,,32.5517,-111.3,Pinal,,,,Arizona Public Service Co,Arizona Public Service Company,AZPS,WECC,AZNM,NG,GAS,0,0,100,0,0,0,0,0,0,0,0
117,APS West Phoenix Power Plant,,,AZ,,33.4417,-112.1583,Maricopa,,,,Arizona Public Service Co,Arizona Public Service Company,AZPS,WECC,AZNM,NG,GAS,0,0,100,0,0,0,0,0,0,0,0
58199,Arizona State University CHP,,,AZ,,33.417222,-111.928333,Maricopa,,,,Arizona Public Service Co,Arizona Public Service Company,AZPS,WECC,AZNM,NG,GAS,0,0,100,0,0,0,0,0,0,0,0
57765,Arizona Western College PV,,,AZ,,32.687778,-114.49611,Yuma,,,,Arizona Public Service Co,Arizona Public Service Company,AZPS,WECC,AZNM,SUN,SOLAR,0,0,0,0,0,0,0,100,0,0,0
55282,Arlington Valley Energy Facility,,,AZ,,33.3417,-112.8897,Maricopa,,,,Salt River Project,"Arlington Valley, LLC - AVBA",DEAA,WECC,AZNM,NG,GAS,0,0,100,0,0,0,0,0,0,0,0
57680,Arlington Valley Solar Energy II,,,AZ,,33.305,-112.833888,Maricopa,,,,Salt River Project,Arizona Public Service Company,AZPS,WECC,AZNM,SUN,SOLAR,0,0,0,0,0,0,0,100,0,0,0
59168,Avalon Solar,,,AZ,,32.001389,-110.960556,Pima,,,,Tucson Electric Power Co,Tucson Electric Power Company,TEPC,WECC,AZNM,SUN,SOLAR,0,0,0,0,0,0,0,100,0,0,0
60062,Avalon Solar II,,,AZ,,32.000854,-110.958427,Pima,,,,Tucson Electric Power Co,Tucson Electric Power Company,TEPC,WECC,AZNM,SUN,SOLAR,0,0,0,0,0,0,0,100,0,0,0
57657,Avra Valley Solar,,,AZ,,32.371667,-111.282777,Pima,,,,Tucson Electric Power Co,Tucson Electric Power Company,TEPC,WECC,AZNM,SUN,SOLAR,0,0,0,0,0,0,0,100,0,0,0
62643,AZ State University - Tempe Campus Solar,,,AZ,,33.424279,-111.92822,Maricopa,,,,Arizona Public Service Co,Arizona Public Service Company,AZPS,WECC,AZNM,SUN,SOLAR,0,0,0,0,0,0,0,100,0,0,0
58262,Badger 1,,,AZ,,33.498003,-112.813458,Maricopa,,,,Arizona Public Service Co,Arizona Public Service Company,AZPS,WECC,AZNM,SUN,SOLAR,0,0,0,0,0,0,0,100,0,0,0
56482,Black Mountain Generating Station,,,AZ,,35.0361,-114.1594,Mohave,,,,"UNS Electric, Inc",Tucson Electric Power Company,TEPC,WECC,AZNM,NG,GAS,0,0,100,0,0,0,0,0,0,0,0
58042,Black Mountain Solar LLC,,,AZ,,35.0227,-114.1627,Mohave,,,,"UNS Electric, Inc",Arizona Public Service Company,AZPS,WECC,AZNM,SUN,SOLAR,0,0,0,0,0,0,0,100,0,0,0
60413,Bonnybrooke PV,,,AZ,,33.053,-111.34,Pinal,,,,Salt River Project,Salt River Project,SRP,WECC,AZNM,SUN,SOLAR,0,0,0,0,0,0,0,100,0,0,0
64580,Broadway 2 - Tucson Phase II,,,AZ,,32.24817,-111.2611,Pima,,,,Arizona Electric Pwr Coop Inc,Tucson Electric Power Company,TEPC,WECC,AZNM,SUN,SOLAR,0,0,0,0,0,0,0,100,0,0,0
65185,Broadway 3 - Tucson Phase I,,,AZ,,32.24817,-111.26111,Pima,,,,Arizona Public Service Co,Tucson Electric Power Company,TEPC,WECC,AZNM,SUN,SOLAR,0,0,0,0,0,0,0,100,0,0,0
58037,Buckeye Union HS District 201,,,AZ,,33.419167,-112.576111,Maricopa,,,,Arizona Public Service Co,Arizona Public Service Company,AZPS,WECC,AZNM,SUN,SOLAR,0,0,0,0,0,0,0,100,0,0,0
60685,Canyon Del Oro High School Solar,,,AZ,,32.374,-110.974,Pima,,,,Tucson Electric Power Co,Tucson Electric Power Company,TEPC,WECC,AZNM,SUN,SOLAR,0,0,0,0,0,0,0,100,0,0,0
57560,Chino Solar Valley,,,AZ,,34.71843,-112.42899,Yavapai,,,,Arizona Public Service Co,Arizona Public Service Company,AZPS,WECC,AZNM,SUN,SOLAR,0,0,0,0,0,0,0,100,0,0,0
113,Cholla,,,AZ,,34.9394,-110.3033,Navajo,,,,Arizona Public Service Co,Arizona Public Service Company,AZPS,WECC,AZNM,SUB,COAL,99.89118298,0.100359243,0.008457774,0,0,0,0,0,0,0,0
56229,Cogeneration 1,,,AZ,,32.229922,-110.952797,Pima,,,,Tucson Electric Power Co,Tucson Electric Power Company,TEPC,WECC,AZNM,NG,GAS,0,0,100,0,0,0,0,0,0,0,0
59233,Cogeneration 2,,,AZ,,32.240833,-110.948333,Pima,,,,Tucson Electric Power Co,Tucson Electric Power Company,TEPC,WECC,AZNM,NG,GAS,0,0,100,0,0,0,0,0,0,0,0
58832,Cogenra - TEP,,,AZ,,32.101944,-110.813333,Pima,,,,Tucson Electric Power Co,Tucson Electric Power Company,TEPC,WECC,AZNM,SUN,SOLAR,0,0,0,0,0,0,0,100,0,0,0
56948,Coolidge Generating Station,,,AZ,,32.917399,-111.503327,Pinal,,,,Salt River Project,Salt River Project,SRP,WECC,AZNM,NG,GAS,0,0,100,0,0,0,0,0,0,0,0
6177,Coronado Generating Station,,,AZ,,34.5789,-109.2708,Apache,,,,Salt River Project,Salt River Project,SRP,WECC,AZNM,RC,COAL,99.61174308,0.388256919,0,0,0,0,0,0,0,0,0
57561,Cotton Center Solar Hybrid,,,AZ,,33.034722,-112.661667,Maricopa,,,,Arizona Public Service Co,Arizona Public Service Company,AZPS,WECC,AZNM,SUN,SOLAR,0,0,0,0,0,0,0,100,0,0,0
143,Crosscut,,,AZ,,33.439375,-111.946052,Maricopa,,,,Salt River Project,Salt River Project,SRP,WECC,AZNM,WAT,HYDRO,,,,,,,,,,,
152,Davis Dam,,,AZ,,35.197044,-114.570669,Mohave,,,,WAPA-- Western Area Power Administration,Western Area Power Administration - Desert Southwest Region,WALC,WECC,AZNM,WAT,HYDRO,0,0,0,0,100,0,0,0,0,0,0
59779,Davis Monthan AFB (AZ) West Airfield,,,AZ,,32.17356,-110.899734,Pima,,,,Tucson Electric Power Co,Tucson Electric Power Company,TEPC,WECC,AZNM,SUN,SOLAR,0,0,0,0,0,0,0,100,0,0,0
124,De Moss Petrie Generating Station,,,AZ,,32.252273,-110.992148,Pima,,,,Tucson Electric Power Co,Tucson Electric Power Company,TEPC,WECC,AZNM,NG,GAS,0,0,100,0,0,0,0,0,0,0,0
55129,Desert Basin Generating Station,,,AZ,,32.9042,-111.7889,Pinal,,,,Salt River Project,Salt River Project,SRP,WECC,AZNM,NG,GAS,0,0,100,0,0,0,0,0,0,0,0
59444,Desert Star Hybrid,,,AZ,,33.145,-112.66,Maricopa,,,,Arizona Public Service Co,Arizona Public Service Company,AZPS,WECC,AZNM,SUN,SOLAR,0,0,0,0,0,0,0,100,0,0,0
114,Douglas,,,AZ,,31.364122,-109.5538,Cochise,,,,Arizona Public Service Co,Arizona Public Service Company,AZPS,WECC,AZNM,DFO,OIL,0,100,0,0,0,0,0,0,0,0,0
57098,Dry Lake Wind LLC,,,AZ,,34.6596,-110.2842,Navajo,,,,Salt River Project,Salt River Project,SRP,WECC,AZNM,WND,WIND,0,0,0,0,0,0,100,0,0,0,0
62899,East Line Solar,,,AZ,,32.84703,-111.565072,Pinal,,,,Salt River Project,Salt River Project,SRP,WECC,AZNM,SUN,SOLAR,0,0,0,0,0,0,0,100,0,0,0
60230,Estrella Mountain PV,,,AZ,,33.409803,-112.340297,Maricopa,,,,Arizona Public Service Co,Arizona Public Service Company,AZPS,WECC,AZNM,SUN,SOLAR,0,0,0,0,0,0,0,100,0,0,0
57997,Foothills Solar Plant Hybrid,,,AZ,,32.64856,-114.428741,Yuma,,,,Arizona Public Service Co,Arizona Public Service Company,AZPS,WECC,AZNM,SUN,SOLAR,0,0,0,0,0,0,0,100,0,0,0
58972,Fort Huachuca Solar PV Project,,,AZ,,31.555278,-110.35,Cochise,,,,Tucson Electric Power Co,Tucson Electric Power Company,TEPC,WECC,AZNM,SUN,SOLAR,0,0,0,0,0,0,0,100,0,0,0
57930,FRB Solar Farm,,,AZ,,32.108147,-110.824662,Pima,,,,Tucson Electric Power Co,Tucson Electric Power Company,TEPC,WECC,AZNM,SUN,SOLAR,0,0,0,0,0,0,0,100,0,0,0
58842,"Gato Montes Solar, LLC",,,AZ,,32.102778,-110.819722,Pima,,,,Tucson Electric Power Co,Tucson Electric Power Company,TEPC,WECC,AZNM,SUN,SOLAR,0,0,0,0,0,0,0,100,0,0,0
59020,Gila Bend Hybrid,,,AZ,,32.940833,-112.881389,Maricopa,,,,Arizona Public Service Co,Arizona Public Service Company,AZPS,WECC,AZNM,SUN,SOLAR,0,0,0,0,0,0,0,100,0,0,0
60768,Gila River Power Block 2,,,AZ,,32.975,-112.694444,Maricopa,,,,Arizona Public Service Co,Salt River Project,SRP,WECC,AZNM,NG,GAS,0,0,100,0,0,0,0,0,0,0,0
55306,Gila River Power Station,,,AZ,,32.975,-112.6944,Maricopa,,,,Arizona Public Service Co,Tucson Electric Power Company,TEPC,WECC,AZNM,NG,GAS,0,0,100,0,0,0,0,0,0,0,0
58543,"Gilbert Solar Facility I, LLC",,,AZ,,33.355862,-111.802355,Maricopa,,,,Arizona Public Service Co,Arizona Public Service Company,AZPS,WECC,AZNM,SUN,SOLAR,0,0,0,0,0,0,0,100,0,0,0
153,Glen Canyon Dam,,,AZ,,36.936614,-111.483872,Coconino,,,,WAPA-- Western Area Power Administration,Western Area Power Administration - Desert Southwest Region,WALC,WECC,RMPA,WAT,HYDRO,0,0,0,0,100,0,0,0,0,0,0
61272,Gray Hawk Solar,,,AZ,,35.3635,-113.8978,Mohave,,,,Tucson Electric Power Co,Tucson Electric Power Company,TEPC,WECC,AZNM,SUN,SOLAR,0,0,0,0,0,0,0,100,0,0,0
55124,Griffith Energy Project,,,AZ,,35.054029,-114.133272,Mohave,,,,WAPA-- Western Area Power Administration,"Griffith Energy, LLC",GRIF,WECC,AZNM,NG,GAS,0,0,100,0,0,0,0,0,0,0,0
7179,Headgate Rock,,,AZ,,34.168264,-114.277356,La Paz,,,,Colorado River Indian Irr Proj,Western Area Power Administration - Desert Southwest Region,WALC,WECC,AZNM,WAT,HYDRO,0,0,0,0,100,0,0,0,0,0,0
8902,Hoover Dam (AZ),,,AZ,,36.01551,-114.738006,Mohave,,,,WAPA-- Western Area Power Administration,Western Area Power Administration - Desert Southwest Region,WALC,WECC,AZNM,WAT,HYDRO,0,0,0,0,100,0,0,0,0,0,0
145,Horse Mesa,,,AZ,,33.5907,-111.344,Maricopa,,,,Salt River Project,Salt River Project,SRP,WECC,AZNM,WAT,HYDRO,0,0,0,0,100,0,0,0,0,0,0
58383,Hyder II Hybrid,,,AZ,,33.027,-113.3489,Yuma,,,,Arizona Public Service Co,Arizona Public Service Company,AZPS,WECC,AZNM,SUN,SOLAR,0,0,0,0,0,0,0,100,0,0,0
57563,Hyder Solar Hybrid,,,AZ,,33.02566,-113.34397,Yuma,,,,Arizona Public Service Co,Arizona Public Service Company,AZPS,WECC,AZNM,SUN,SOLAR,0,0,0,0,0,0,0,100,0,0,0
60822,Intel - Ocotillo Campus Solar,,,AZ,,33.243261,-111.892354,Maricopa,,,,Salt River Project,Arizona Public Service Company,AZPS,WECC,AZNM,SUN,SOLAR,0,0,0,0,0,0,0,100,0,0,0
56899,IRC Generator Facility,,,AZ,,36.9708,-112.5264,Coconino,,,,"Garkane Energy Coop, Inc",Western Area Power Administration - Desert Southwest Region,WALC,WECC,NWPP,DFO,OIL,,,,,,,,,,,
60996,Iron Horse Battery Storage Hybrid,,,AZ,,32.098492,-110.819119,Pima,,,,Tucson Electric Power Co,Tucson Electric Power Company,TEPC,WECC,AZNM,SUN,SOLAR,0,0,0,0,0,0,0,100,0,0,0
126,Irvington Generating Station,,,AZ,,32.16,-110.9047,Pima,,,,Tucson Electric Power Co,Tucson Electric Power Company,TEPC,WECC,AZNM,NG,GAS,0,0,100,0,0,0,0,0,0,0,0
60603,Jacobson 5 MW Solar,,,AZ,,35.304528,-114.01183,Mohave,,,,"UNS Electric, Inc",Tucson Electric Power Company,TEPC,WECC,AZNM,SUN,SOLAR,0,0,0,0,0,0,0,100,0,0,0
58292,Jewish Community Center PV,,,AZ,,33.603056,-111.924722,Maricopa,,,,Arizona Public Service Co,Arizona Public Service Company,AZPS,WECC,AZNM,SUN,SOLAR,0,0,0,0,0,0,0,100,0,0,0
61268,Kayenta Solar Project,,,AZ,,36.771944,-110.263889,Navajo,,,,Navajo Tribal Utility Authority,Western Area Power Administration - Desert Southwest Region,WALC,WECC,NWPP,SUN,SOLAR,0,0,0,0,0,0,0,100,0,0,0
57775,Kingman 1,,,AZ,,35.145833,-114.0675,Mohave,,,,"UNS Electric, Inc",Arizona Public Service Company,AZPS,WECC,AZNM,WND,WIND,0,0,0,0,0,0,97.05151643,2.94848357,0,0,0
147,Kyrene Generating Station,,,AZ,,33.3556,-111.9353,Maricopa,,,,Salt River Project,Salt River Project,SRP,WECC,AZNM,NG,GAS,0,0,100,0,0,0,0,0,0,0,0
57556,La Senita,,,AZ,,35.241675,-114.004591,Mohave,,,,"UNS Electric, Inc",Tucson Electric Power Company,TEPC,WECC,AZNM,SUN,SOLAR,0,0,0,0,0,0,0,100,0,0,0
58539,Lake Pleasant WTP,,,AZ,,33.820556,-112.24,Maricopa,,,,Arizona Public Service Co,Arizona Public Service Company,AZPS,WECC,AZNM,SUN,SOLAR,0,0,0,0,0,0,0,100,0,0,0
57324,Luke Solar,,,AZ,,33.526111,-112.37944,Maricopa,,,,Arizona Public Service Co,Arizona Public Service Company,AZPS,WECC,AZNM,SUN,SOLAR,0,0,0,0,0,0,0,100,0,0,0
57673,Macys Goodyear,,,AZ,,33.409063,-112.414596,Maricopa,,,,Arizona Public Service Co,Arizona Public Service Company,AZPS,WECC,AZNM,SUN,SOLAR,0,0,0,0,0,0,0,100,0,0,0
64404,Mesa Carport PV,,,AZ,,33.347,-111.602,Maricopa,,,,Salt River Project,Salt River Project,SRP,WECC,AZNM,SUN,SOLAR,0,0,0,0,0,0,0,100,0,0,0
55481,Mesquite Generating Station,,,AZ,,33.345,-112.864167,Maricopa,,,,Salt River Project,Salt River Project,SRP,WECC,AZNM,NG,GAS,0,0,100,0,0,0,0,0,0,0,0
57707,Mesquite Solar 1,,,AZ,,33.341833,-112.904028,Maricopa,,,,Salt River Project,California Independent System Operator,CISO,WECC,CAMX,SUN,SOLAR,0,0,0,0,0,0,0,100,0,0,0
60307,"Mesquite Solar 2, LLC",,,AZ,,33.332777,-112.911388,Maricopa,,,,San Diego Gas & Electric Co,California Independent System Operator,CISO,WECC,CAMX,SUN,SOLAR,0,0,0,0,0,0,0,100,0,0,0
60308,"Mesquite Solar 3, LLC",,,AZ,,33.347583,-112.936805,Maricopa,,,,San Diego Gas & Electric Co,California Independent System Operator,CISO,WECC,CAMX,SUN,SOLAR,0,0,0,0,0,0,0,100,0,0,0
63114,Mohave County Wind Farm,,,AZ,,35.791142,-114.504504,Mohave,,,,WAPA-- Western Area Power Administration,Western Area Power Administration - Desert Southwest Region,WALC,WECC,AZNM,WND,WIND,0,0,0,0,0,0,100,0,0,0,0
59819,Mohave Electric at Fort Mohave,,,AZ,,34.9843,-114.5565,Mohave,,,,"Mohave Electric Cooperative, I",Western Area Power Administration - Desert Southwest Region,WALC,WECC,AZNM,SUN,SOLAR,0,0,0,0,0,0,0,100,0,0,0
63554,Mohave Electric Cooperative at Joy Lane,,,AZ,,34.9843,-114.5565,Mohave,,,,"Mohave Electric Cooperative, I",Western Area Power Administration - Desert Southwest Region,WALC,WECC,AZNM,SUN,SOLAR,0,0,0,0,0,0,0,100,0,0,0
148,Mormon Flat,,,AZ,,33.5536,-111.4431,Maricopa,,,,Salt River Project,Salt River Project,SRP,WECC,AZNM,WAT,HYDRO,0,0,0,0,100,0,0,0,0,0,0
55372,New Harquahala Generating Company,,,AZ,,33.47596,-113.113434,Maricopa,,,,Salt River Project,"New Harquahala Generating Company, LLC - HGBA",HGMA,WECC,AZNM,NG,GAS,0,0,100,0,0,0,0,0,0,0,0
6088,North Loop,,,AZ,,32.401,-111.1262,Pima,,,,Tucson Electric Power Co,Tucson Electric Power Company,TEPC,WECC,AZNM,NG,GAS,0,0,100,0,0,0,0,0,0,0,0
57403,Northwest Regional,,,AZ,,33.681944,-112.476666,Maricopa,,,,Arizona Public Service Co,Arizona Public Service Company,AZPS,WECC,AZNM,LFG,BIOMASS,0,0,0,0,0,100,0,0,0,0,0
56616,Novo BioPower Plant,,,AZ,,34.503158,-110.334953,Navajo,,,,Arizona Public Service Co,Arizona Public Service Company,AZPS,WECC,AZNM,WDS,BIOMASS,0,0,0.04956197,0,0,99.95043803,0,0,0,0,0
116,Ocotillo Power Plant,,,AZ,,33.4225,-111.9122,Maricopa,,,,Arizona Public Service Co,Arizona Public Service Company,AZPS,WECC,AZNM,NG,GAS,0,0,100,0,0,0,0,0,0,0,0
63349,OE_AZ1,,,AZ,,33.776667,-113.656111,La Paz,,,,WAPA-- Western Area Power Administration,Western Area Power Administration - Desert Southwest Region,WALC,WECC,AZNM,SUN,SOLAR,0,0,0,0,0,0,0,100,0,0,0
6008,Palo Verde,,,AZ,,33.3881,-112.8617,Maricopa,,,,Salt River Project,Salt River Project,SRP,WECC,AZNM,NUC,NUCLEAR,0,0,0,100,0,0,0,0,0,0,0
57562,Paloma Solar Hybrid,,,AZ,,33.021111,-112.661389,Maricopa,,,,Arizona Public Service Co,Arizona Public Service Company,AZPS,WECC,AZNM,SUN,SOLAR,0,0,0,0,0,0,0,100,0,0,0
58293,Paradise Valley H.S. PV,,,AZ,,33.6416,-111.9997,Maricopa,,,,Arizona Public Service Co,Arizona Public Service Company,AZPS,WECC,AZNM,SUN,SOLAR,0,0,0,0,0,0,0,100,0,0,0
58155,Perrin Ranch Wind LLC,,,AZ,,35.415556,-112.271111,Coconino,,,,Arizona Public Service Co,Arizona Public Service Company,AZPS,WECC,AZNM,WND,WIND,0,0,0,0,0,0,100,0,0,0,0
58708,Phoenix Airport East Economy Lot,,,AZ,,33.4345,-111.9842,Maricopa,,,,Arizona Public Service Co,Arizona Public Service Company,AZPS,WECC,AZNM,SUN,SOLAR,0,0,0,0,0,0,0,100,0,0,0
58709,Phoenix Airport Rental Car Center,,,AZ,,33.43042,-112.04484,Maricopa,,,,Arizona Public Service Co,Arizona Public Service Company,AZPS,WECC,AZNM,SUN,SOLAR,0,0,0,0,0,0,0,100,0,0,0
58486,"Picture Rocks Solar, LLC",,,AZ,,32.369722,-111.242778,Pima,,,,Tucson Electric Power Co,Tucson Electric Power Company,TEPC,WECC,AZNM,SUN,SOLAR,0,0,0,0,0,0,0,100,0,0,0
62075,Pima Community College,,,AZ,,32.166494,-110.816669,Pima,,,,Tucson Electric Power Co,Tucson Electric Power Company,TEPC,WECC,AZNM,SUN,SOLAR,0,0,0,0,0,0,0,100,0,0,0
61104,Pima Community College - East Campus,,,AZ,,32.146142,-110.990639,Pima,,,,Tucson Electric Power Co,Tucson Electric Power Company,TEPC,WECC,AZNM,SUN,SOLAR,0,0,0,0,0,0,0,100,0,0,0
63531,Pima Community College NW,,,AZ,,32.343491,-111.02786,Pima,,,,Tucson Electric Power Co,Tucson Electric Power Company,TEPC,WECC,AZNM,SUN,SOLAR,0,0,0,0,0,0,0,100,0,0,0
61197,Pima Energy Storage System,,,AZ,,32.251647,-110.991333,Pima,,,,Tucson Electric Power Co,Tucson Electric Power Company,TEPC,WECC,AZNM,MWH,OTHF,,,,,,,,,,,
61678,Pinal Central Energy Center Hybrid,,,AZ,,32.875697,-111.551111,Pinal,,,,Salt River Project,Salt River Project,SRP,WECC,AZNM,SUN,SOLAR,0,0,0,0,0,0,0,100,0,0,0
57318,"Poseidon Solar, LLC",,,AZ,,33.160601,-111.484011,GILA,,,,Salt River Project,Salt River Project,SRP,WECC,AZNM,SUN,SOLAR,0,0,0,0,0,0,0,100,0,0,0
57379,"Poseidon Wind, LLC",,,AZ,,34.6062,-110.1734,Navajo,,,,Arizona Public Service Co,Arizona Public Service Company,AZPS,WECC,AZNM,WND,WIND,0,0,0,0,0,0,100,0,0,0,0
58171,Prairie Fire,,,AZ,,32.116389,-110.82,Pima,,,,Tucson Electric Power Co,Tucson Electric Power Company,TEPC,WECC,AZNM,SUN,SOLAR,0,0,0,0,0,0,0,100,0,0,0
56228,Prescott Airport,,,AZ,,34.6584,-112.4008,Yavapai,,,,Arizona Public Service Co,Arizona Public Service Company,AZPS,WECC,AZNM,SUN,SOLAR,0,0,0,0,0,0,0,100,0,0,0
58147,Prescott Solar Plant,,,AZ,,34.649444,-112.4275,Yavapai,,,,Arizona Public Service Co,Arizona Public Service Company,AZPS,WECC,AZNM,SUN,SOLAR,0,0,0,0,0,0,0,100,0,0,0
61913,Punkin Center Battery Storage,,,AZ,,33.87581,-111.31356,Gila,,,,Arizona Public Service Co,Arizona Public Service Company,AZPS,WECC,AZNM,MWH,OTHF,,,,,,,,,,,
57883,Queen Creek Solar Farm,,,AZ,,33.2675,-111.612222,Maricopa,,,,Salt River Project,Salt River Project,SRP,WECC,AZNM,SUN,SOLAR,0,0,0,0,0,0,0,100,0,0,0
57795,RE Ajo 1 LLC,,,AZ,,32.367013,-112.831401,Pima,,,,Arizona Public Service Co,Arizona Public Service Company,AZPS,WECC,AZNM,SUN,SOLAR,0,0,0,0,0,0,0,100,0,0,0
57790,RE Bagdad Solar I LLC,,,AZ,,34.585833,-113.177222,Yavapai,,,,Arizona Public Service Co,Arizona Public Service Company,AZPS,WECC,AZNM,SUN,SOLAR,0,0,0,0,0,0,0,100,0,0,0
58501,RE Gillespie 1 LLC,,,AZ,,33.026389,-112.665833,Maricopa,,,,Arizona Public Service Co,Arizona Public Service Company,AZPS,WECC,AZNM,SUN,SOLAR,0,0,0,0,0,0,0,100,0,0,0
58833,Red Horse 2,,,AZ,,32.286111,-110.088056,Cochise,,,,Tucson Electric Power Co,Tucson Electric Power Company,TEPC,WECC,AZNM,SUN,SOLAR,0,0,0,0,0,0,29.78326719,70.21673281,0,0,0
60285,Red Horse III,,,AZ,,32.13597,-110.05129,Cochise,,,,Tucson Electric Power Co,Tucson Electric Power Company,TEPC,WECC,AZNM,SUN,SOLAR,0,0,0,0,0,0,0,100,0,0,0
60467,Red Rock,,,AZ,,32.551026,-111.289232,Maricopa,,,,Arizona Public Service Co,Arizona Public Service Company,AZPS,WECC,AZNM,SUN,SOLAR,0,0,0,0,0,0,0,100,0,0,0
55455,Redhawk Generating Facility,,,AZ,,33.334562,-112.840641,Maricopa,,,,Salt River Project,Salt River Project,SRP,WECC,AZNM,NG,GAS,0,0,100,0,0,0,0,0,0,0,0
59044,Rio Rico Solar,,,AZ,,31.5,-111.008056,Santa Cruz,,,,"UNS Electric, Inc",Tucson Electric Power Company,TEPC,WECC,AZNM,SUN,SOLAR,0,0,0,0,0,0,0,100,0,0,0
57524,Roger Road WWTP,,,AZ,,32.2894,-111.0331,Pima,,,,Tucson Electric Power Co,Tucson Electric Power Company,TEPC,WECC,AZNM,SUN,SOLAR,0,0,0,0,0,0,0,100,0,0,0
149,Roosevelt,,,AZ,,33.671104,-111.161786,Maricopa,,,,Salt River Project,Salt River Project,SRP,WECC,AZNM,WAT,HYDRO,0,0,0,0,100,0,0,0,0,0,0
58213,Saddle Mountain Solar I,,,AZ,,33.378333,-113.180833,Maricopa,,,,Arizona Public Service Co,Arizona Public Service Company,AZPS,WECC,AZNM,SUN,SOLAR,0,0,0,0,0,0,0,100,0,0,0
63476,Saint Solar,,,AZ,,32.866276,-111.502402,Pinal,,,,Salt River Project,Salt River Project,SRP,WECC,AZNM,SUN,SOLAR,0,0,0,0,0,0,0,100,0,0,0
59634,Sandstone Solar,,,AZ,,33.035556,-111.430278,Pinal,,,,Salt River Project,Salt River Project,SRP,WECC,AZNM,SUN,SOLAR,0,0,0,0,0,0,0,100,0,0,0
8068,Santan,,,AZ,,33.3325,-111.7503,Maricopa,,,,Salt River Project,Salt River Project,SRP,WECC,AZNM,NG,GAS,0,0,100,0,0,0,0,0,0,0,0
56812,Solana Generating Station,,,AZ,,32.922294,-112.95594,Maricopa,,,,Arizona Public Service Co,Arizona Public Service Company,AZPS,WECC,AZNM,SUN,SOLAR,0,0,0,0,0,0,0,100,0,0,0
100,South Consolidated,,,AZ,,33.466477,-111.781064,Maricopa,,,,Salt River Project,Salt River Project,SRP,WECC,AZNM,WAT,HYDRO,,,,,,,,,,,
55177,"South Point Energy Center, LLC",,,AZ,,34.8678,-114.5317,Mohave,,,,WAPA-- Western Area Power Administration,Western Area Power Administration - Desert Southwest Region,WALC,WECC,AZNM,NG,GAS,0,0,100,0,0,0,0,0,0,0,0
8223,Springerville Generating Station,,,AZ,,34.3186,-109.1639,Apache,,,,Tucson Electric Power Co,Tucson Electric Power Company,TEPC,WECC,AZNM,RC,COAL,99.48531002,0.318419629,0,0,0,0,0,0.196270351,0,0,0
150,Stewart Mountain,,,AZ,,33.5661,-111.536,Maricopa,,,,Salt River Project,Salt River Project,SRP,WECC,AZNM,WAT,HYDRO,0,0,0,0,100,0,0,0,0,0,0
60381,Sulphur Springs,,,AZ,,32.0628,-109.919283,Cochise,,,,Sulphur Springs Valley E C Inc,Western Area Power Administration - Desert Southwest Region,WALC,WECC,AZNM,SUN,SOLAR,0,0,0,0,0,0,0,100,0,0,0
63440,Sun Streams 2,,,AZ,,33.320406,-112.816771,Maricopa,,,,Salt River Project,California Independent System Operator,CISO,WECC,CAMX,SUN,SOLAR,0,0,0,0,0,0,0,100,0,0,0
60827,"Sun Streams, LLC",,,AZ,,33.34884,-112.8348,Maricopa,,,,Southern California Edison Co,California Independent System Operator,CISO,WECC,CAMX,SUN,SOLAR,0,0,0,0,0,0,0,100,0,0,0
55522,Sundance Power Plant,,,AZ,,32.9285,-111.5899,Pinal,,,,WAPA-- Western Area Power Administration,Western Area Power Administration - Desert Southwest Region,WALC,WECC,AZNM,NG,GAS,0,0,100,0,0,0,0,0,0,0,0
61199,T0588 Phoenix - AZ,,,AZ,,33.447225,-112.217664,Maricopa,,,,Salt River Project,Salt River Project,SRP,WECC,AZNM,SUN,SOLAR,0,0,0,0,0,0,0,100,0,0,0
59455,Tech Park Solar,,,AZ,,32.097884,-110.815696,Pima,,,,Tucson Electric Power Co,Tucson Electric Power Company,TEPC,WECC,AZNM,SUN,SOLAR,0,0,0,0,0,0,0,100,0,0,0
57392,UASTP I,,,AZ,,32.096973,-110.8106,Pima,,,,Tucson Electric Power Co,Tucson Electric Power Company,TEPC,WECC,AZNM,SUN,SOLAR,0,0,0,0,0,0,0,100,0,0,0
58516,Union HS at Casa Grande,,,AZ,,32.936944,-111.738611,Pinal,,,,Arizona Public Service Co,Arizona Public Service Company,AZPS,WECC,AZNM,SUN,SOLAR,0,0,0,0,0,0,0,100,0,0,0
54594,University of Arizona - Biosphere 2,,,AZ,,32.578011,-110.852608,Pinal,,,,USBIA-San Carlos Project,Western Area Power Administration - Desert Southwest Region,WALC,WECC,AZNM,NG,GAS,0,38.35384615,61.64615385,0,0,0,0,0,0,0,0
6515,Valencia,,,AZ,,31.363472,-110.931343,Santa Cruz,,,,"UNS Electric, Inc",Tucson Electric Power Company,TEPC,WECC,AZNM,NG,GAS,0,0,100,0,0,0,0,0,0,0,0
59454,Valencia Solar,,,AZ,,32.145833,-110.866944,Pima,,,,Tucson Electric Power Co,Tucson Electric Power Company,TEPC,WECC,AZNM,SUN,SOLAR,0,0,0,0,0,0,0,100,0,0,0
58517,Vista Grande HS at Casa Grande,,,AZ,,32.891389,-111.713056,Pinal,,,,Arizona Public Service Co,Arizona Public Service Company,AZPS,WECC,AZNM,SUN,SOLAR,0,0,0,0,0,0,0,100,0,0,0
7164,Waddell,,,AZ,,33.8447,-112.2714,Maricopa,,,,Arizona Public Service Co,Western Area Power Administration - Desert Southwest Region,WALC,WECC,AZNM,WAT,HYDRO,,,,,,,,,,,
57939,Walmart Casa Grande,,,AZ,,32.866837,-111.771751,Pinal,,,,Arizona Public Service Co,Arizona Public Service Company,AZPS,WECC,AZNM,SUN,SOLAR,0,0,0,0,0,0,0,100,0,0,0
56358,Western Renewable Energy,,,AZ,,34.093006,-109.289979,Apache,,,,"Navopache Electric Coop, Inc",Arizona Public Service Company,AZPS,WECC,AZNM,WDS,BIOMASS,,,,,,,,,,,
64426,Wilmot Energy Center LLC,,,AZ,,32.043502,-110.892676,Pima,,,,Tucson Electric Power Co,Tucson Electric Power Company,TEPC,WECC,AZNM,SUN,SOLAR,0,0,0,0,0,0,0,100,0,0,0
120,Yucca Power Plant,,,AZ,,32.7214,-114.7106,Yuma,,,,Arizona Public Service Co,Arizona Public Service Company,AZPS,WECC,AZNM,NG,GAS,0,0.623824532,99.37617547,0,0,0,0,0,0,0,0
54694,Yuma Cogeneration Associates,,,AZ,,32.728822,-114.654053,Yuma,,,,Arizona Public Service Co,Arizona Public Service Company,AZPS,WECC,AZNM,NG,GAS,0,0,100,0,0,0,0,0,0,0,0
57310,1420 Coil Av #C,,,CA,,33.794283,-118.241405,Los Angeles,,,,Los Angeles Department of Water & Power,Los Angeles Department of Water and Power,LDWP,WECC,CAMX,SUN,SOLAR,0,0,0,0,0,0,0,100,0,0,0
65331,"20333 Normandie PV, LLC",,,CA,,33.84614,-118.30019,Los Angeles,,,,Los Angeles Department of Water & Power,Los Angeles Department of Water and Power,LDWP,WECC,CAMX,SUN,SOLAR,0,0,0,0,0,0,0,100,0,0,0
58918,2081 Terzian Solar Project,,,CA,,36.67,-119.415833,Fresno,,,,Pacific Gas & Electric Co,California Independent System Operator,CISO,WECC,CAMX,SUN,SOLAR,0,0,0,0,0,0,0,100,0,0,0
58920,2097 Helton Solar Project,,,CA,,37.352222,-120.506944,Merced,,,,Pacific Gas & Electric Co,California Independent System Operator,CISO,WECC,CAMX,SUN,SOLAR,0,0,0,0,0,0,0,100,0,0,0
58919,2127 Harris Solar Project,,,CA,,39.291667,-121.669722,Butte,,,,Pacific Gas & Electric Co,California Independent System Operator,CISO,WECC,CAMX,SUN,SOLAR,0,0,0,0,0,0,0,100,0,0,0
57871,2555 E Olympic Bl,,,CA,,34.026944,-118.224167,Los Angeles,,,,Los Angeles Department of Water & Power,Los Angeles Department of Water and Power,LDWP,WECC,CAMX,SUN,SOLAR,,,,,,,,,,,
52162,85 A,,,CA,,35.1011,-118.3372,Kern,,,,Southern California Edison Co,California Independent System Operator,CISO,WECC,CAMX,WND,WIND,0,0,0,0,0,0,100,0,0,0,0
52163,85 B,,,CA,,35.1011,-118.3372,Kern,,,,Southern California Edison Co,California Independent System Operator,CISO,WECC,CAMX,WND,WIND,0,0,0,0,0,0,100,0,0,0,0
293,A G Wishon,,,CA,,37.15105,-119.504724,Madera,,,,Pacific Gas & Electric Co,California Independent System Operator,CISO,WECC,CAMX,WAT,HYDRO,0,0,0,0,100,0,0,0,0,0,0
61501,ABEC #2 dba West-Star Dairy,,,CA,,35.472113,-119.432866,Kern,,,,Pacific Gas & Electric Co.,California Independent System Operator,CISO,WECC,CAMX,OBG,BIOMASS,0,0,0,0,0,100,0,0,0,0,0
61502,ABEC #3 dba Lakeview Dairy,,,CA,,35.21426,-119.202974,Kern,,,,Pacific Gas & Electric Co.,California Independent System Operator,CISO,WECC,CAMX,OBG,BIOMASS,0,0,0,0,0,100,0,0,0,0,0
61503,ABEC #4 dba CE&S Dairy,,,CA,,35.17306,-119.116384,Kern,,,,Pacific Gas & Electric Co.,California Independent System Operator,CISO,WECC,CAMX,OBG,BIOMASS,0,0,0,0,0,100,0,0,0,0,0
58699,ABEC Bidart-Old River LLC,,,CA,,35.169722,-119.105556,Kern,,,,Pacific Gas & Electric Co,California Independent System Operator,CISO,WECC,CAMX,OBG,BIOMASS,0,0,0,0,0,100,0,0,0,0,0
62874,Acorn I Energy Storage LLC,,,CA,,34.196505,-118.931898,Ventura,,,,Southern California Edison Co,California Independent System Operator,CISO,WECC,CAMX,MWH,OTHF,,,,,,,,,,,
59978,"Adapture CA2, LLC",,,CA,,39.69898,-122.175583,Glenn,,,,Pacific Gas & Electric Co,PacifiCorp - West,PACW,WECC,NWPP,SUN,SOLAR,0,0,0,0,0,0,0,100,0,0,0
59440,"Adelanto Solar II, LLC",,,CA,,34.557222,-117.3775,San Bernardino,,,,Southern California Edison Co,California Independent System Operator,CISO,WECC,CAMX,SUN,SOLAR,0,0,0,0,0,0,0,100,0,0,0
57305,Adelanto Solar Project,,,CA,,34.550833,-117.435277,San Bernardino,,,,Intermountain Power Agency,Los Angeles Department of Water and Power,LDWP,WECC,CAMX,SUN,SOLAR,0,0,0,0,0,0,0,100,0,0,0
59441,"Adelanto Solar, LLC",,,CA,,34.557222,-117.3775,San Bernardino,,,,Southern California Edison Co,California Independent System Operator,CISO,WECC,CAMX,SUN,SOLAR,0,0,0,0,0,0,0,100,0,0,0
60027,Adera Solar,,,CA,,37.120586,-120.32488,Madera,,,,Pacific Gas & Electric Co,California Independent System Operator,CISO,WECC,CAMX,SUN,SOLAR,0,0,0,0,0,0,0,100,0,0,0
57811,Adobe San Jose,,,CA,,37.330556,-121.893056,Santa Clara,,,,Pacific Gas & Electric Co,California Independent System Operator,CISO,WECC,CAMX,NG,GAS,,,,,,,,,,,
57651,Adobe Solar,,,CA,,35.102778,-118.954444,KERN,,,,Pacific Gas & Electric Co,California Independent System Operator,CISO,WECC,CAMX,SUN,SOLAR,0,0,0,0,0,0,0,100,0,0,0
64819,AEC- Santa Rosa Solar,,,CA,,33.5293,-116.547706,Riverside,,,,Anza Electric Coop Inc,California Independent System Operator,CISO,WECC,CAMX,SUN,SOLAR,,,,,,,,,,,
55184,Aera San Ardo Cogen Facility,,,CA,,35.953293,-120.859952,Monterey,,,,Pacific Gas & Electric Co,California Independent System Operator,CISO,WECC,CAMX,NG,GAS,0,0,100,0,0,0,0,0,0,0,0
57697,Aerojet I,,,CA,,38.613508,-121.162879,Sacramento,,,,Sacramento Municipal Util Dist,Balancing Authority of Northern California,BANC,WECC,CAMX,SUN,SOLAR,0,0,0,0,0,0,0,100,0,0,0
57698,Aerojet II,,,CA,,38.6086,-121.1703,Sacramento,,,,"4 Rivers Electric Cooperative, Inc.",Balancing Authority of Northern California,BANC,WECC,CAMX,SUN,SOLAR,0,0,0,0,0,0,0,100,0,0,0
61718,Aerolease,,,CA,,34.189857,-118.451355,Los Angeles,,,,Los Angeles Department of Water & Power,Los Angeles Department of Water and Power,LDWP,WECC,CAMX,SUN,SOLAR,0,0,0,0,0,0,0,100,0,0,0
315,AES Alamitos,,,CA,,33.7688,-118.1009,Los Angeles,,,,Southern California Edison Co,California Independent System Operator,CISO,WECC,CAMX,NG,GAS,0,0,100,0,0,0,0,0,0,0,0
62115,AES Alamitos Energy Center,,,CA,,33.767229,-118.100194,Los Angeles,,,,Southern California Edison Co,California Independent System Operator,CISO,WECC,CAMX,NG,GAS,0,0,100,0,0,0,0,0,0,0,0
61204,"AES ES ALAMITOS, LLC",,,CA,,33.770202,-118.099665,Los Angeles,,,,Southern California Edison Co,California Independent System Operator,CISO,WECC,CAMX,MWH,OTHF,,,,,,,,,,,
335,AES Huntington Beach,,,CA,,33.6439,-117.9792,Orange,,,,Southern California Edison Co,California Independent System Operator,CISO,WECC,CAMX,NG,GAS,0,0,100,0,0,0,0,0,0,0,0
62116,AES Huntington Beach Energy Project,,,CA,,33.645618,-117.979372,Orange,,,,Southern California Edison Co,California Independent System Operator,CISO,WECC,CAMX,NG,GAS,0,0,100,0,0,0,0,0,0,0,0
356,AES Redondo Beach,,,CA,,33.8504,-118.395,Los Angeles,,,,Southern California Edison Co,California Independent System Operator,CISO,WECC,CAMX,NG,GAS,0,0,100,0,0,0,0,0,0,0,0
50748,Agnews Power Plant,,,CA,,37.4058,-121.9272,Santa Clara,,,,Pacific Gas & Electric Co,California Independent System Operator,CISO,WECC,CAMX,NG,GAS,0,0,100,0,0,0,0,0,0,0,0
63699,AGT000 Stevens Creek Fuel Cell,,,CA,,37.32489,-121.99894,Santa Clara,,,,City of Santa Clara - (CA),California Independent System Operator,CISO,WECC,CAMX,NG,GAS,0,0,100,0,0,0,0,0,0,0,0
55951,Agua Mansa Power,,,CA,,34.0414,-117.3603,San Bernardino,,,,City of Colton - (CA),California Independent System Operator,CISO,WECC,CAMX,NG,GAS,0,0,100,0,0,0,0,0,0,0,0
52158,Aidlin Geothermal Power Plant,,,CA,,38.8339,-122.881,Sonoma,,,,Pacific Gas & Electric Co,California Independent System Operator,CISO,WECC,CAMX,GEO,GEOTHERMAL,0,0,0,0,0,0,0,0,100,0,0
7450,Alameda,,,CA,,37.7886,-122.2889,Alameda,,,,City of Alameda,California Independent System Operator,CISO,WECC,CAMX,NG,GAS,0,0,100,0,0,0,0,0,0,0,0
905,Alamo,,,CA,,34.8158,-118.6867,Los Angeles,,,,Southern California Edison Co,California Independent System Operator,CISO,WECC,CAMX,WAT,HYDRO,0,0,0,0,100,0,0,0,0,0,0
59469,Alamo Solar,,,CA,,34.682222,-117.3475,San Bernardino,,,,Southern California Edison Co,California Independent System Operator,CISO,WECC,CAMX,SUN,SOLAR,0,0,0,0,0,0,0,100,0,0,0
57564,Algonquin Power Sanger,,,CA,,36.6842,-119.5522,Fresno,,,,Pacific Gas & Electric Co,California Independent System Operator,CISO,WECC,CAMX,NG,GAS,0,0,100,0,0,0,0,0,0,0,0
60242,"Algonquin SKIC 10 Solar, LLC",,,CA,,35.126111,-119.243361,Kern,,,,Pacific Gas & Electric Co,California Independent System Operator,CISO,WECC,CAMX,SUN,SOLAR,0,0,0,0,0,0,0,100,0,0,0
59412,Algonquin SKIC20 Solar LLC,,,CA,,35.126111,-119.243333,Kern,,,,Pacific Gas & Electric Co,California Independent System Operator,CISO,WECC,CAMX,SUN,SOLAR,0,0,0,0,0,0,0,100,0,0,0
63609,Allergan,,,CA,,33.67239,-117.85381,Orange,,,,Southern California Edison Co,California Independent System Operator,CISO,WECC,CAMX,MWH,OTHF,,,,,,,,,,,
7315,Almond Power Plant,,,CA,,37.5744,-120.985,Stanislaus,,,,Turlock Irrigation District,Turlock Irrigation District,TIDC,WECC,CAMX,NG,GAS,0,0,100,0,0,0,0,0,0,0,0
58003,Alpaugh 50,,,CA,,35.898333,-119.435278,Tulare,,,,Pacific Gas & Electric Co,California Independent System Operator,CISO,WECC,CAMX,SUN,SOLAR,0,0,0,0,0,0,0,100,0,0,0
58002,Alpaugh North,,,CA,,35.9025,-119.442778,Tulare,,,,Pacific Gas & Electric Co,California Independent System Operator,CISO,WECC,CAMX,SUN,SOLAR,0,0,0,0,0,0,0,100,0,0,0
57295,Alpine Solar,,,CA,,34.7892,-118.5047,Los Angeles,,,,Southern California Edison Co,California Independent System Operator,CISO,WECC,CAMX,SUN,SOLAR,0,0,0,0,0,0,0,100,0,0,0
54650,Alta Mesa Repower LLC,,,CA,,33.942,-116.661,Riverside,,,,Southern California Edison Co,California Independent System Operator,CISO,WECC,CAMX,WND,WIND,,,,,,,,,,,
214,Alta Powerhouse,,,CA,,39.215979,-120.80355,Placer,,,,Pacific Gas & Electric Co,California Independent System Operator,CISO,WECC,CAMX,WAT,HYDRO,0,0,0,0,100,0,0,0,0,0,0
57282,Alta Wind Energy Center I,,,CA,,35.033725,-118.353422,Kern,,,,Southern California Edison Co,California Independent System Operator,CISO,WECC,CAMX,WND,WIND,0,0,0,0,0,0,100,0,0,0,0
57291,Alta Wind Energy Center II,,,CA,,35.023889,-118.295278,Kern,,,,Southern California Edison Co,California Independent System Operator,CISO,WECC,CAMX,WND,WIND,0,0,0,0,0,0,100,0,0,0,0
57292,Alta Wind Energy Center III,,,CA,,35.023889,-118.295278,Kern,,,,Southern California Edison Co,California Independent System Operator,CISO,WECC,CAMX,WND,WIND,0,0,0,0,0,0,100,0,0,0,0
57293,Alta Wind Energy Center IV,,,CA,,35.008611,-118.242222,Kern,,,,Southern California Edison Co,California Independent System Operator,CISO,WECC,CAMX,WND,WIND,0,0,0,0,0,0,100,0,0,0,0
57294,Alta Wind Energy Center V,,,CA,,35.008611,-118.242222,Kern,,,,Southern California Edison Co,California Independent System Operator,CISO,WECC,CAMX,WND,WIND,0,0,0,0,0,0,100,0,0,0,0
57835,Alta Wind VIII,,,CA,,35.026683,-118.234811,Kern,,,,Southern California Edison Co,California Independent System Operator,CISO,WECC,CAMX,WND,WIND,0,0,0,0,0,0,100,0,0,0,0
58394,Alta Wind X,,,CA,,35.06,-118.2,Kern,,,,Southern California Edison Co,California Independent System Operator,CISO,WECC,CAMX,WND,WIND,0,0,0,0,0,0,100,0,0,0,0
58395,Alta Wind XI,,,CA,,35.065,-118.39,Kern,,,,Southern California Edison Co,California Independent System Operator,CISO,WECC,CAMX,WND,WIND,0,0,0,0,0,0,100,0,0,0,0
50299,AltaGas Ripon Energy Inc.,,,CA,,37.732533,-121.116006,San Joaquin,,,,Pacific Gas & Electric Co,California Independent System Operator,CISO,WECC,CAMX,NG,GAS,0,0,100,0,0,0,0,0,0,0,0
50571,Altamont Gas Recovery,,,CA,,37.749308,-121.649866,Alameda,,,,Pacific Gas & Electric Co,California Independent System Operator,CISO,WECC,CAMX,LFG,BIOMASS,0,0,0,0,0,100,0,0,0,0,0
63303,Alticor Inc - Solar Project,,,CA,,33.878585,-117.99608,Orange,,,,Southern California Edison Co,California Independent System Operator,CISO,WECC,CAMX,SUN,SOLAR,0,0,0,0,0,0,0,100,0,0,0
61377,Amazon - Patterson PV,,,CA,,37.468888,-121.166326,Stanislaus,,,,Pacific Gas & Electric Co,Balancing Authority of Northern California,BANC,WECC,CAMX,SUN,SOLAR,0,0,0,0,0,0,0,100,0,0,0
64751,Amazon PSP1,,,CA,,33.92624,-116.99442,Riverside,,,,Southern California Edison Co,California Independent System Operator,CISO,WECC,CAMX,SUN,SOLAR,0,0,0,0,0,0,0,100,0,0,0
59800,Amazon San Bernardino,,,CA,,34.088408,-117.245839,San Bernardino,,,,Southern California Edison Co,California Independent System Operator,CISO,WECC,CAMX,NG,GAS,0,0,100,0,0,0,0,0,0,0,0
50964,Amedee Geothermal Venture I,,,CA,,40.300833,-120.105,Lassen,,,,Pacific Gas & Electric Co,California Independent System Operator,CISO,WECC,CAMX,GEO,GEOTHERMAL,,,,,,,,,,,
57771,Ameresco Butte County,,,CA,,39.674,-121.73,Butte,,,,Pacific Gas & Electric Co,California Independent System Operator,CISO,WECC,CAMX,LFG,BIOMASS,0,0,0,0,0,100,0,0,0,0,0
56898,Ameresco Chiquita Canyon,,,CA,,34.431664,-118.642855,Los Angeles,,,,Southern California Edison Co,California Independent System Operator,CISO,WECC,CAMX,LFG,BIOMASS,0,0,0,0,0,100,0,0,0,0,0
58437,Ameresco Forward,,,CA,,37.883406,-121.185104,San Joaquin,,,,Pacific Gas & Electric Co,California Independent System Operator,CISO,WECC,CAMX,LFG,BIOMASS,0,0,0,0,0,100,0,0,0,0,0
58397,Ameresco Johnson Canyon,,,CA,,36.534167,-121.408611,Monterey,,,,Pacific Gas & Electric Co,California Independent System Operator,CISO,WECC,CAMX,LFG,BIOMASS,0,0,0,0,0,100,0,0,0,0,0
56897,Ameresco Keller Canyon,,,CA,,38.003928,-121.934491,Contra Costa,,,,Pacific Gas & Electric Co,California Independent System Operator,CISO,WECC,CAMX,LFG,BIOMASS,0,0,0,0,0,100,0,0,0,0,0
56895,Ameresco Ox Mountain,,,CA,,37.5,-122.4,San Mateo,,,,Pacific Gas & Electric Co,California Independent System Operator,CISO,WECC,CAMX,LFG,BIOMASS,0,0,0,0,0,100,0,0,0,0,0
58436,Ameresco San Joaquin,,,CA,,38.029722,-120.929722,San Joaquin,,,,Pacific Gas & Electric Co,California Independent System Operator,CISO,WECC,CAMX,LFG,BIOMASS,0,0,0,0,0,100,0,0,0,0,0
56428,Ameresco Santa Cruz Energy,,,CA,,36.9178,-121.8156,Santa Cruz,,,,Pacific Gas & Electric Co,California Independent System Operator,CISO,WECC,CAMX,LFG,BIOMASS,0,0,0,0,0,100,0,0,0,0,0
58435,Ameresco Vasco Road,,,CA,,37.754444,-121.728889,Alameda,,,,Pacific Gas & Electric Co,California Independent System Operator,CISO,WECC,CAMX,LFG,BIOMASS,0,0,0,0,0,100,0,0,0,0,0
62687,American Canyon Solar,,,CA,,38.160858,-122.214014,Napa,,,,Pacific Gas & Electric Co.,California Independent System Operator,CISO,WECC,CAMX,SUN,SOLAR,0,0,0,0,0,0,0,100,0,0,0
60777,"American Kings Solar, LLC",,,CA,,36.24,-119.898,Kings,,,,Pacific Gas & Electric Co,California Independent System Operator,CISO,WECC,CAMX,SUN,SOLAR,0,0,0,0,0,0,0,100,0,0,0
56706,Ampersand Chowchilla Biomass LLC,,,CA,,37.106668,-120.248504,Madera,,,,Pacific Gas & Electric Co,California Independent System Operator,CISO,WECC,CAMX,WDS,BIOMASS,0,0,0.063883256,0,0,99.93611674,0,0,0,0,0
59416,Anaheim Solar Energy Plant,,,CA,,33.8025,-117.919722,Orange,,,,City of Anaheim - (CA),California Independent System Operator,CISO,WECC,CAMX,SUN,SOLAR,0,0,0,0,0,0,0,100,0,0,0
215,Angels,,,CA,,38.071944,-120.539444,Calaveras,,,,Pacific Gas & Electric Co,California Independent System Operator,CISO,WECC,CAMX,WAT,HYDRO,0,0,0,0,100,0,0,0,0,0,0
59331,Anheuser-Busch #2,,,CA,,38.233611,-122.0925,Solano,,,,Pacific Gas & Electric Co,California Independent System Operator,CISO,WECC,CAMX,WND,WIND,0,0,0,0,0,0,100,0,0,0,0
60279,Antelope Big Sky Ranch,,,CA,,34.694839,-118.28769,Los Angeles,,,,Southern California Edison Co,California Independent System Operator,CISO,WECC,CAMX,SUN,SOLAR,0,0,0,0,0,0,0,100,0,0,0
60186,Antelope DSR 1,,,CA,,34.655556,-118.280722,Los Angeles,,,,Southern California Edison Co,California Independent System Operator,CISO,WECC,CAMX,SUN,SOLAR,0,0,0,0,0,0,0,100,0,0,0
60187,Antelope DSR 2,,,CA,,34.686944,-118.311722,Los Angeles,,,,Southern California Edison Co,California Independent System Operator,CISO,WECC,CAMX,SUN,SOLAR,0,0,0,0,0,0,0,100,0,0,0
61265,Antelope DSR 3,,,CA,,34.736859,-118.304071,Los Angeles,,,,Southern California Edison Co,California Independent System Operator,CISO,WECC,CAMX,SUN,SOLAR,0,0,0,0,0,0,0,100,0,0,0
61264,Antelope Expansion 2,,,CA,,34.744977,-118.309153,Los Angeles,,,,Southern California Edison Co,California Independent System Operator,CISO,WECC,CAMX,SUN,SOLAR,0,0,0,0,0,0,0,100,0,0,0
62673,Antelope Expansion 3A,,,CA,,34.728902,-118.322051,Los Angeles,,,,Southern California Edison Co,California Independent System Operator,CISO,WECC,CAMX,SUN,SOLAR,0,0,0,0,0,0,0,100,0,0,0
62674,Antelope Expansion 3B,,,CA,,34.720162,-118.322532,Los Angeles,,,,Southern California Edison Co,California Independent System Operator,CISO,WECC,CAMX,SUN,SOLAR,0,0,0,0,0,0,0,100,0,0,0
65404,Antioch Central Utility Plant,,,CA,,37.949488,-121.775429,Contra Costa,,,,Pacific Gas & Electric Co.,California Independent System Operator,CISO,WECC,CAMX,SUN,SOLAR,0,0,0,0,0,0,0,100,0,0,0
59610,"AP North Lake I, LP",,,CA,,33.74,-117.010556,Riverside,,,,Southern California Edison Co,California Independent System Operator,CISO,WECC,CAMX,SUN,SOLAR,0,0,0,0,0,0,0,100,0,0,0
62577,APP Prune A-D,,,CA,,37.331666,-122.006686,Santa Clara,,,,Pacific Gas & Electric Co.,California Independent System Operator,CISO,WECC,CAMX,NG,GAS,0,0,100,0,0,0,0,0,0,0,0
59557,Apple Campus 2 Fuel Cell,,,CA,,37.33,-122.01,Santa Clara,,,,Pacific Gas & Electric Co,California Independent System Operator,CISO,WECC,CAMX,LFG,BIOMASS,0,0,0,0,0,100,0,0,0,0,0
59473,Apple Campus 2 PV,,,CA,,37.33,-122.01,Santa Clara,,,,Pacific Gas & Electric Co,California Independent System Operator,CISO,WECC,CAMX,SUN,SOLAR,0,0,0,0,0,0,0,100,0,0,0
62547,Aquamarine,,,CA,,36.189722,-119.904166,Kings,,,,Pacific Gas & Electric Co.,California Independent System Operator,CISO,WECC,CAMX,SUN,SOLAR,0,0,0,0,0,0,0,100,0,0,0
10684,Argus Cogen Plant,,,CA,,35.765,-117.3833,San Bernardino,,,,Southern California Edison Co,California Independent System Operator,CISO,WECC,CAMX,RC,COAL,96.59430461,0,3.405695394,0,0,0,0,0,0,0,0
58445,Arrache 4006,,,CA,,34.655,-118.051111,Los Angeles,,,,Southern California Edison Co,California Independent System Operator,CISO,WECC,CAMX,SUN,SOLAR,0,0,0,0,0,0,0,100,0,0,0
58446,Arrache 4013,,,CA,,34.650556,-118.051944,Los Angeles,,,,Southern California Edison Co,California Independent System Operator,CISO,WECC,CAMX,SUN,SOLAR,0,0,0,0,0,0,0,100,0,0,0
58447,Arrache 8083,,,CA,,34.647778,-118.061111,Los Angeles,,,,Southern California Edison Co,California Independent System Operator,CISO,WECC,CAMX,SUN,SOLAR,0,0,0,0,0,0,0,100,0,0,0
59737,Aspiration G,,,CA,,36.552186,-120.352481,Fresno,,,,Southern California Edison Co,California Independent System Operator,CISO,WECC,CAMX,SUN,SOLAR,0,0,0,0,0,0,0,100,0,0,0
58889,ASTI,,,CA,,38.761389,-122.975278,Sonoma,,,,Pacific Gas & Electric Co,California Independent System Operator,CISO,WECC,CAMX,SUN,SOLAR,0,0,0,0,0,0,0,100,0,0,0
65205,AT&T - Gardena,,,CA,,33.874969,-118.289798,Los Angeles,,,,Los Angeles Department of Water & Power,California Independent System Operator,CISO,WECC,CAMX,NG,GAS,0,0,100,0,0,0,0,0,0,0,0
65206,AT&T - Hawthorne,,,CA,,33.92429,-118.320597,Los Angeles,,,,Southern California Edison Co,California Independent System Operator,CISO,WECC,CAMX,NG,GAS,0,0,100,0,0,0,0,0,0,0,0
65208,AT&T - Hayward,,,CA,,37.659879,-122.09685,Alameda,,,,Pacific Gas & Electric Co.,California Independent System Operator,CISO,WECC,CAMX,NG,GAS,0,0,100,0,0,0,0,0,0,0,0
65204,AT&T - Redwood City,,,CA,,37.480769,-122.200408,San Mateo,,,,Pacific Gas & Electric Co.,California Independent System Operator,CISO,WECC,CAMX,NG,GAS,0,0,100,0,0,0,0,0,0,0,0
65360,AT&T - San Diego Trade Street,,,CA,,32.88758,-117.16682,San Diego,,,,San Diego Gas & Electric Co,California Independent System Operator,CISO,WECC,CAMX,NG,GAS,0,0,100,0,0,0,0,0,0,0,0
61154,AT&T Anaheim,,,CA,,33.836439,-117.916893,Orange,,,,City of Anaheim - (CA),California Independent System Operator,CISO,WECC,CAMX,NG,GAS,0,0,100,0,0,0,0,0,0,0,0
61153,AT&T Holger,,,CA,,37.417638,-121.94453,Santa Clara,,,,Pacific Gas & Electric Co,California Independent System Operator,CISO,WECC,CAMX,NG,GAS,0,0,100,0,0,0,0,0,0,0,0
65192,AT&T San Diego,,,CA,,32.904775,-117.1986,San Diego,,,,San Diego Gas & Electric Co,California Independent System Operator,CISO,WECC,CAMX,NG,GAS,0,0,100,0,0,0,0,0,0,0,0
64523,Atascadero State Hospital,,,CA,,35.463333,-120.634011,San Luis Obispo,,,,Pacific Gas & Electric Co.,California Independent System Operator,CISO,WECC,CAMX,SUN,SOLAR,0,0,0,0,0,0,0,100,0,0,0
62573,ATT  Kelvin,,,CA,,33.684675,-117.836821,Orange,,,,Southern California Edison Co,California Independent System Operator,CISO,WECC,CAMX,NG,GAS,0,0,100,0,0,0,0,0,0,0,0
63605,ATT North Watney,,,CA,,38.236257,-122.077759,Solano,,,,Pacific Gas & Electric Co.,California Independent System Operator,CISO,WECC,CAMX,NG,GAS,0,0,100,0,0,0,0,0,0,0,0
62574,ATT Van Nyus,,,CA,,34.196324,-118.448225,Los Angeles,,,,Los Angeles Department of Water & Power,Los Angeles Department of Water and Power,LDWP,WECC,CAMX,NG,GAS,0,0,100,0,0,0,0,0,0,0,0
63606,ATT Ventura Blvd,,,CA,,34.152191,-118.456078,Los Angeles,,,,Los Angeles Department of Water & Power,Los Angeles Department of Water and Power,LDWP,WECC,CAMX,NG,GAS,0,0,100,0,0,0,0,0,0,0,0
58366,Atwell Island,,,CA,,35.895,-119.510833,Tulare,,,,Pacific Gas & Electric Co,California Independent System Operator,CISO,WECC,CAMX,SUN,SOLAR,0,0,0,0,0,0,0,100,0,0,0
59414,Atwell Island West Solar,,,CA,,35.815,-119.459722,Tulare,,,,Pacific Gas & Electric Co,California Independent System Operator,CISO,WECC,CAMX,SUN,SOLAR,0,0,0,0,0,0,0,100,0,0,0
57378,AV Solar Ranch One,,,CA,,34.780278,-118.42444,Los Angeles,,,,Southern California Edison Co,California Independent System Operator,CISO,WECC,CAMX,SUN,SOLAR,0,0,0,0,0,0,0,100,0,0,0
57359,Avenal Park,,,CA,,35.989722,-120.11,Kings,,,,Pacific Gas & Electric Co,California Independent System Operator,CISO,WECC,CAMX,SUN,SOLAR,0,0,0,0,0,0,0,100,0,0,0
60085,AVS Lancaster 1,,,CA,,34.748894,-117.973571,Los Angeles,,,,Southern California Edison Co,California Independent System Operator,CISO,WECC,CAMX,SUN,SOLAR,0,0,0,0,0,0,0,100,0,0,0
58039,Axium Modesto Solar,,,CA,,37.734167,-120.995556,Stanislaus,,,,Modesto Irrigation District,California Independent System Operator,CISO,WECC,CAMX,SUN,SOLAR,0,0,0,0,0,0,0,100,0,0,0
6449,Azusa,,,CA,,34.1548,-117.9093,Los Angeles,,,,Southern California Edison Co,California Independent System Operator,CISO,WECC,CAMX,WAT,HYDRO,,,,,,,,,,,
50200,B Braun Medical,,,CA,,33.688721,-117.834793,Orange,,,,Southern California Edison Co,California Independent System Operator,CISO,WECC,CAMX,NG,GAS,0,0,100,0,0,0,0,0,0,0,0
10650,Badger Creek Limited,,,CA,,35.483736,-119.029856,Kern,,,,Pacific Gas & Electric Co,California Independent System Operator,CISO,WECC,CAMX,NG,GAS,0,0,100,0,0,0,0,0,0,0,0
63610,Baker,,,CA,,33.656528,-117.68412,Orange,,,,Southern California Edison Co,California Independent System Operator,CISO,WECC,CAMX,MWH,OTHF,,,,,,,,,,,
59428,Baker Creek Hydroelectric,,,CA,,40.526389,-123.725556,Humboldt,,,,Pacific Gas & Electric Co,California Independent System Operator,CISO,WECC,CAMX,WAT,HYDRO,0,0,0,0,100,0,0,0,0,0,0
59948,Bakersfield 111,,,CA,,35.317551,-118.989894,Kern,,,,Pacific Gas & Electric Co,PacifiCorp - West,PACW,WECC,NWPP,SUN,SOLAR,0,0,0,0,0,0,0,100,0,0,0
57655,Bakersfield College Solar 01,,,CA,,35.411817,-118.96864,Kern,,,,Pacific Gas & Electric Co,California Independent System Operator,CISO,WECC,CAMX,SUN,SOLAR,0,0,0,0,0,0,0,100,0,0,0
61118,Bakersfield Industrial PV 1,,,CA,,35.330032,-118.993119,Kern,,,,Pacific Gas & Electric Co,California Independent System Operator,CISO,WECC,CAMX,SUN,SOLAR,0,0,0,0,0,0,0,100,0,0,0
61117,Bakersfield PV 1,,,CA,,35.324982,-118.981522,Kern,,,,Pacific Gas & Electric Co,California Independent System Operator,CISO,WECC,CAMX,SUN,SOLAR,0,0,0,0,0,0,0,100,0,0,0
217,Balch 1,,,CA,,36.909137,-119.087712,Fresno,,,,Pacific Gas & Electric Co,California Independent System Operator,CISO,WECC,CAMX,WAT,HYDRO,0,0,0,0,100,0,0,0,0,0,0
218,Balch 2,,,CA,,36.908907,-119.087556,Fresno,,,,Pacific Gas & Electric Co,California Independent System Operator,CISO,WECC,CAMX,WAT,HYDRO,0,0,0,0,100,0,0,0,0,0,0
56474,Barre Generating Station,,,CA,,33.8073,-117.9832,Orange,,,,Southern California Edison Co,California Independent System Operator,CISO,WECC,CAMX,NG,GAS,0,0,100,0,0,0,0,0,0,0,0
60481,"Bayshore Solar A, LLC",,,CA,,34.667817,-118.298089,Los Angeles,,,,Southern California Edison Co,California Independent System Operator,CISO,WECC,CAMX,SUN,SOLAR,0,0,0,0,0,0,0,100,0,0,0
60474,"Bayshore Solar B, LLC",,,CA,,34.678305,-118.302649,Los Angeles,,,,Southern California Edison Co,California Independent System Operator,CISO,WECC,CAMX,SUN,SOLAR,0,0,0,0,0,0,0,100,0,0,0
60475,"Bayshore Solar C, LLC",,,CA,,34.681338,-118.314087,Los Angeles,,,,Southern California Edison Co,California Independent System Operator,CISO,WECC,CAMX,SUN,SOLAR,0,0,0,0,0,0,0,100,0,0,0
65617,BBARWA,,,CA,,34.267795,-116.815428,San Bernardino,,,,Bear Valley Electric Service,California Independent System Operator,CISO,WECC,CAMX,SUN,SOLAR,0,0,0,0,0,0,0,100,0,0,0
61431,Beacon BESS 1,,,CA,,35.256526,-118.027519,Kern,,,,Los Angeles Department of Water & Power,Los Angeles Department of Water and Power,LDWP,WECC,CAMX,MWH,OTHF,,,,,,,,,,,
59309,Beacon Solar Plant Site 2,,,CA,,35.265833,-117.999167,Kern,,,,Los Angeles Department of Water & Power,Los Angeles Department of Water and Power,LDWP,WECC,CAMX,SUN,SOLAR,0,0,0,0,0,0,0,100,0,0,0
59308,Beacon Solar Plant Site 5,,,CA,,35.248889,-118.034444,Kern,,,,Los Angeles Department of Water & Power,Los Angeles Department of Water and Power,LDWP,WECC,CAMX,SUN,SOLAR,0,0,0,0,0,0,0,100,0,0,0
50156,Bear Creek,,,CA,,40.534454,-121.959109,Shasta,,,,Pacific Gas & Electric Co,California Independent System Operator,CISO,WECC,CAMX,WAT,HYDRO,0,0,0,0,100,0,0,0,0,0,0
58508,Bear Creek Solar,,,CA,,38.136389,-121.148889,San Joaquin,,,,Pacific Gas & Electric Co,California Independent System Operator,CISO,WECC,CAMX,SUN,SOLAR,0,0,0,0,0,0,0,100,0,0,0
10649,Bear Mountain Limited,,,CA,,35.419181,-118.926643,Kern,,,,Pacific Gas & Electric Co,California Independent System Operator,CISO,WECC,CAMX,NG,GAS,0,0,100,0,0,0,0,0,0,0,0
457,Bear Valley,,,CA,,33.166246,-117.016566,San Diego,,,,San Diego Gas & Electric Co,California Independent System Operator,CISO,WECC,CAMX,WAT,HYDRO,0,0,0,0,100,0,0,0,0,0,0
56346,Bear Valley Power Plant,,,CA,,34.2506,-116.9025,San Bernardino,,,,Bear Valley Electric Service,California Independent System Operator,CISO,WECC,CAMX,NG,GAS,0,0,100,0,0,0,0,0,0,0,0
414,Beardsley,,,CA,,38.202569,-120.076983,Tuolumne,,,,Pacific Gas & Electric Co,California Independent System Operator,CISO,WECC,CAMX,WAT,HYDRO,0,0,0,0,100,0,0,0,0,0,0
65203,Beckton Dickenson - San Jose,,,CA,,37.39789,-121.88594,Santa Clara,,,,Pacific Gas & Electric Co.,California Independent System Operator,CISO,WECC,CAMX,NG,GAS,0,0,100,0,0,0,0,0,0,0,0
